Initializing..
default to 4800..
Setting GPS config...
Setting GPS to EM_406A
$PSRF100,1,4800,8,1,0*0E
Start GPS Rx - serial1 at 4800
Start nmea Rx - serial2 at 9600
Start nmea Rx - serial3 at 9600
Start SPI uarts..
CS_PIN set to OUTPUT
CS_PIN OUTPUT = HIGH
Start nmea Rx - serial4 at 9600
MultiSerial::begin
SPI started
SPI UART reset
SPI init complete
Start nmea Tx..
Start nmea Tx - on pins 46 Tx, 48 Rx at 0
Init autopilot..
MultiSerial::begin
SPI started
SPI init complete
Init autopilot..start PID..
Init autopilot..set limits..
Init autopilot complete
Start wind..
Start timer..
Setup complete..
run:
$SDDPT,2.83,0.00,100.0*5D
!!VER:1.9,UID:MEGA,APX:0,APS:C,AAX:0,AAR:14.00,WSX:0,WSK:99,
$WIMWV,5.0,R,3.19,N,A*1D
$SDDBT,9.28,f,2.83,M,1.54,F*3C
$VWVHW,,T,,M,2.90,N,5.36,K*5F
$SDDPT,2.85,0.00,100.0*5B
!!VER:1.9,UID:MEGA,APX:0,APS:C,AAX:0,AAR:14.00,WSX:0,WSK:99,
$SDDBT,9.35,f,2.85,M,1.55,F*37
!!VER:1.9,UID:MEGA,APX:0,APS:C,AAX:0,AAR:14.00,WSX:0,WSK:99,
$GPRMC,190915.000,A,3503.8640,N,07658.1212,W,3.89,276.99,120816,,,A*77
$VWVHW,,T,,M,2.94,N,5.43,K*59
$SDDPT,2.91,0.00,100.0*5E
$SDDPT,2.91,0.00,100.0*5E
$GPRMC,190917.000,A,3503.8651,N,07658.1233,W,3.33,287.04,120816,,,A*7D
$SDDPT,3.06,0.00,100.0*51
$SDDPT,3.33,0.00,100.0*57
!!VER:1.9,UID:MEGA,APX:0,APS:C,AAX:0,AAR:14.00,WSX:0,WSK:99,
$SDDPT,3.48,0.00,100.0*5B
$SDDBT,11.41,f,3.48,M,1.90,F*04
!!VER:1.9,UID:MEGA,APX:0,APS:C,AAX:0,AAR:14.00,WSX:0,WSK:99,
$WIMWV,21.0,R,1.88,N,A*21
$VWVHW,,T,,M,2.98,N,5.51,K*56
$VWVLW,,N,,N*4C
$SDDPT,3.37,0.00,100.0*53
$SDDBT,11.05,f,3.37,M,1.84,F*09
!!VER:1.9,UID:MEGA,APX:0,APS:C,AAX:0,AAR:14.00,WSX:0,WSK:99,
$SDDPT,3.04,0.00,100.0*53
$SDDBT,9.97,f,3.04,M,1.66,F*37
$VWVHW,,T,,M,2.98,N,5.51,K*56
$GPRMC,190922.000,A,3503.8694,N,07658.1268,W,3.52,328.88,120816,,,A*7B
$VWVLW,,N,,N*4C
$SDDPT,2.82,0.00,100.0*5C
$SDDPT,2.74,0.00,100.0*55
!!VER:1.9,UID:MEGA,APX:0,APS:C,AAX:0,AAR:14.00,WSX:0,WSK:99,
$SDDPT,2.67,0.00,100.0*57
$SDDBT,8.76,f,2.67,M,1.46,F*3F
$VWVHW,,T,,M,3.00,N,5.55,K*52
$VWVLW,,N,,N*4C
!!VER:1.9,UID:MEGA,APX:0,APS:C,AAX:0,AAR:14.00,WSX:0,WSK:99,
$SDDPT,2.68,0.00,100.0*58
$SDDBT,8.79,f,2.68,M,1.46,F*3F
$VWVHW,,T,,M,3.06,N,5.66,K*54
$SDDPT,2.71,0.00,100.0*50
!!VER:1.9,UID:MEGA,APX:0,APS:C,AAX:0,AAR:14.00,WSX:0,WSK:99,
$WIMWV,12.0,R,1.05,N,A*24
$SDDBT,8.89,f,2.71,M,1.48,F*36
$GPRMC,190927.000,A,3503.8758,N,07658.1291,W,3.80,336.85,120816,,,A*74
$VWVHW,,T,,M,3.10,N,5.73,K*57
$SDDPT,2.56,0.00,100.0*55
!!VER:1.9,UID:MEGA,APX:0,APS:C,AAX:0,AAR:14.00,WSX:0,WSK:99,
$WIMWV,340.0,R,0.78,N,A*1B
$SDDPT,2.50,0.00,100.0*53
$GPRMC,190929.000,A,3503.8777,N,07658.1304,W,3.78,330.00,120816,,,A*76
!!VER:1.9,UID:MEGA,APX:0,APS:C,AAX:0,AAR:14.00,WSX:0,WSK:99,
$SDDPT,2.38,0.00,100.0*5D
$SDDPT,2.37,0.00,100.0*52
!!VER:1.9,UID:MEGA,APX:0,APS:C,AAX:0,AAR:14.00,WSX:0,WSK:99,
$SDDPT,2.61,0.00,100.0*51
!!VER:1.9,UID:MEGA,APX:0,APS:C,AAX:0,AAR:14.00,WSX:0,WSK:99,
$GPGSA,A,3,06,19,17,02,12,28,03,09,24,,,,1.5,0.9,1.1*30
$SDDBT,8.56,f,2.61,M,1.42,F*3F
$SDDPT,2.07,0.00,100.0*51
$SDDPT,2.05,0.00,100.0*53
$SDDBT,6.72,f,2.05,M,1.12,F*30
$SDDPT,1.98,0.00,100.0*54
$SDDBT,6.49,f,1.98,M,1.08,F*34
$VWVHW,,T,,M,3.00,N,5.55,K*52
$SDDPT,1.96,0.00,100.0*5A
$SDDBT,6.43,f,1.96,M,1.07,F*3F
!!VER:1.9,UID:MEGA,APX:0,APS:C,AAX:0,AAR:14.00,WSX:0,WSK:99,
$GPRMC,190937.000,A,3503.8823,N,07658.1393,W,3.83,285.21,120816,,,A*71
$VWVHW,,T,,M,3.06,N,5.66,K*54
$SDDPT,1.96,0.00,100.0*5A
!!VER:1.9,UID:MEGA,APX:0,APS:C,AAX:0,AAR:14.00,WSX:0,WSK:99,
$SDDPT,1.92,0.00,100.0*5E
$GPRMC,190939.000,A,3503.8828,N,07658.1421,W,3.93,281.12,120816,,,A*7F
$SDDPT,1.92,0.00,100.0*5E
$SDDPT,1.89,0.00,100.0*54
$SDDBT,6.20,f,1.89,M,1.03,F*30
$VWVHW,,T,,M,3.08,N,5.69,K*55
$SDDPT,1.87,0.00,100.0*5A
!!VER:1.9,UID:MEGA,APX:0,APS:C,AAX:0,AAR:14.00,WSX:0,WSK:99,
$WIMWV,320.0,R,9.87,N,A*14
$SDDBT,6.13,f,1.87,M,1.02,F*3F
$GPRMC,190942.000,A,3503.8836,N,07658.1462,W,3.98,276.81,120816,,,A*72
$VWVHW,,T,,M,3.12,N,5.77,K*51
$SDDPT,1.84,0.00,100.0*59
!!VER:1.9,UID:MEGA,APX:0,APS:C,AAX:0,AAR:14.00,WSX:0,WSK:99,
$WIMWV,320.0,R,9.53,N,A*1D
$SDDPT,1.84,0.00,100.0*59
$GPRMC,190944.000,A,3503.8840,N,07658.1489,W,4.08,277.64,120816,,,A*74
!!VER:1.9,UID:MEGA,APX:0,APS:C,AAX:0,AAR:14.00,WSX:0,WSK:99,
$SDDPT,1.80,0.00,100.0*5D
$SDDPT,1.80,0.00,100.0*5D
!!VER:1.9,UID:MEGA,APX:0,APS:C,AAX:0,AAR:14.00,WSX:0,WSK:99,
$SDDPT,1.77,0.00,100.0*55
$SDDBT,5.80,f,1.77,M,0.96,F*35
$VWVHW,,T,,M,3.16,N,5.84,K*59
$VWVLW,,N,,N*4C
!!VER:1.9,UID:MEGA,APX:0,APS:C,AAX:0,AAR:14.00,WSX:0,WSK:99,
$SDDPT,1.77,0.00,100.0*55
$SDDBT,5.80,f,1.77,M,0.96,F*35
$VWVHW,,T,,M,3.18,N,5.88,K*5B
$VWVHW,,T,,M,3.18,N,5.88,K*5B
!!VER:1.9,UID:MEGA,APX:0,APS:C,AAX:0,AAR:14.00,WSX:0,WSK:99,
$WIMWV,318.0,R,10.79,N,A*26
$VWVHW,,T,,M,3.18,N,5.88,K*5B
$GPRMC,190949.000,A,3503.8846,N,07658.1557,W,4.03,272.77,120816,,,A*71
$VWVHW,,T,,M,3.18,N,5.88,K*5B
$VWVHW,,T,,M,3.18,N,5.88,K*5B
$VWVHW,,T,,M,3.18,N,5.88,K*5B
!!VER:1.9,UID:MEGA,APX:0,APS:C,AAX:0,AAR:14.00,WSX:0,WSK:99,
$GPRMC,190951.000,A,3503.8848,N,07658.1584,W,3.95,272.30,120816,,,A*73
$VWVHW,,T,,M,3.18,N,5.88,K*5B
$VWVHW,,T,,M,3.18,N,5.88,K*5B
$VWVHW,,T,,M,3.18,N,5.88,K*5B
$VWVHW,,T,,M,3.18,N,5.88,K*5B
!!VER:1.9,UID:MEGA,APX:0,APS:C,AAX:0,AAR:14.00,WSX:0,WSK:99,
$WIMWV,318.0,R,9.49,N,A*1D
$VWVHW,,T,,M,3.18,N,5.88,K*5B
$VWVHW,,T,,M,3.18,N,5.88,K*5B
$SDDPT,1.77,0.00,100.0*55
$VWVLW,,N,,N*4C
!!VER:1.9,UID:MEGA,APX:0,APS:C,AAX:0,AAR:14.00,WSX:0,WSK:99,
$SDDPT,1.72,0.00,100.0*50
$SDDBT,5.64,f,1.72,M,0.94,F*38
$VWVHW,,T,,M,3.14,N,5.80,K*5F
!!VER:1.9,UID:MEGA,APX:0,APS:C,AAX:0,AAR:14.00,WSX:0,WSK:99,
$VWVLW,,N,,N*4C
$SDDPT,1.75,0.00,100.0*57
$SDDBT,5.74,f,1.75,M,0.95,F*3F
!!VER:1.9,UID:MEGA,APX:0,APS:C,AAX:0,AAR:14.00,WSX:0,WSK:99,
$GPRMC,190957.000,A,3503.8855,N,07658.1662,W,4.00,271.75,120816,,,A*7B
$VWVHW,,T,,M,3.16,N,5.84,K*59
$SDDPT,1.77,0.00,100.0*55
$SDDPT,1.77,0.00,100.0*55
!!VER:1.9,UID:MEGA,APX:0,APS:C,AAX:0,AAR:14.00,WSX:0,WSK:99,
$GPRMC,190959.000,A,3503.8856,N,07658.1688,W,4.01,270.00,120816,,,A*70
!!VER:1.9,UID:MEGA,APX:0,APS:C,AAX:0,AAR:14.00,WSX:0,WSK:99,
$VWVLW,,N,,N*4C
$SDDPT,1.77,0.00,100.0*55
!!VER:1.9,UID:MEGA,APX:0,APS:C,AAX:0,AAR:14.00,WSX:0,WSK:99,
$WIMWV,316.0,R,10.77,N,A*26
$SDDPT,1.77,0.00,100.0*55
$GPRMC,191001.000,A,3503.8857,N,07658.1715,W,4.04,269.09,120816,,,A*75
$SDDPT,1.75,0.00,100.0*57
$SDDPT,1.77,0.00,100.0*55
!!VER:1.9,UID:MEGA,APX:0,APS:C,AAX:0,AAR:14.00,WSX:0,WSK:99,
$GPGGA,191003.000,3503.8856,N,07658.1742,W,1,09,0.9,-6.4,M,-34.8,M,,0000*43
!!VER:1.9,UID:MEGA,APX:0,APS:C,AAX:0,AAR:14.00,WSX:0,WSK:99,
$WIMWV,314.0,R,9.11,N,A*1C
!!VER:1.9,UID:MEGA,APX:0,APS:C,AAX:0,AAR:14.00,WSX:0,WSK:99,
$WIMWV,314.0,R,8.74,N,A*1E
!!VER:1.9,UID:MEGA,APX:0,APS:C,AAX:0,AAR:14.00,WSX:0,WSK:99,
$WIMWV,316.0,R,9.82,N,A*14
$SDDPT,1.80,0.00,100.0*5D
$SDDPT,1.89,0.00,100.0*54
!!VER:1.9,UID:MEGA,APX:0,APS:C,AAX:0,AAR:14.00,WSX:0,WSK:99,
$GPRMC,191011.000,A,3503.8848,N,07658.1857,W,4.27,262.66,120816,,,A*70
$VWVHW,,T,,M,3.22,N,5.95,K*5E
!!VER:1.9,UID:MEGA,APX:0,APS:C,AAX:0,AAR:14.00,WSX:0,WSK:99,
$SDDPT,1.83,0.00,100.0*5E
$SDDBT,6.00,f,1.83,M,1.00,F*3B
$VWVHW,,T,,M,3.22,N,5.95,K*5E
$SDDPT,1.83,0.00,100.0*5E
!!VER:1.9,UID:MEGA,APX:0,APS:C,AAX:0,AAR:14.00,WSX:0,WSK:99,
$WIMWV,317.0,R,10.24,N,A*21
$SDDBT,6.00,f,1.83,M,1.00,F*3B
$VWVHW,,T,,M,3.22,N,5.95,K*5E
$SDDPT,1.80,0.00,100.0*5D
$SDDBT,5.90,f,1.80,M,0.98,F*32
$VWVLW,,N,,N*4C
$SDDPT,1.83,0.00,100.0*5E
$SDDBT,6.00,f,1.83,M,1.00,F*3B
!!VER:1.9,UID:MEGA,APX:0,APS:C,AAX:0,AAR:14.00,WSX:0,WSK:99,
$GPRMC,191016.000,A,3503.8841,N,07658.1931,W,4.37,263.12,120816,,,A*7C
$VWVLW,,N,,N*4C
$SDDPT,1.84,0.00,100.0*59
$SDDPT,1.81,0.00,100.0*5C
$GPRMC,191018.000,A,3503.8839,N,07658.1957,W,4.15,263.34,120816,,,A*79
$SDDPT,1.77,0.00,100.0*55
$SDDBT,5.80,f,1.77,M,0.96,F*35
$SDDPT,1.83,0.00,100.0*5E
$SDDBT,6.00,f,1.83,M,1.00,F*3B
!!VER:1.9,UID:MEGA,APX:0,APS:C,AAX:0,AAR:14.00,WSX:0,WSK:99,
$SDDBT,6.00,f,1.83,M,1.00,F*3B
$SDDBT,6.00,f,1.83,M,1.00,F*3B
$SDDBT,6.00,f,1.83,M,1.00,F*3B
$SDDBT,6.00,f,1.83,M,1.00,F*3B
$SDDBT,6.00,f,1.83,M,1.00,F*3B
!!VER:1.9,UID:MEGA,APX:0,APS:C,AAX:0,AAR:14.00,WSX:0,WSK:99,
$GPRMC,191022.000,A,3503.8831,N,07658.2008,W,4.13,252.25,120816,,,A*7C
$SDDBT,6.00,f,1.83,M,1.00,F*3B
$SDDBT,6.00,f,1.83,M,1.00,F*3B
$SDDBT,6.00,f,1.83,M,1.00,F*3B
!!VER:1.9,UID:MEGA,APX:0,APS:C,AAX:0,AAR:14.00,WSX:0,WSK:99,
$GPRMC,191024.000,A,3503.8822,N,07658.2033,W,4.10,247.78,120816,,,A*7F
$SDDBT,6.00,f,1.83,M,1.00,F*3B
$SDDBT,6.00,f,1.83,M,1.00,F*3B
$SDDBT,6.00,f,1.83,M,1.00,F*3B
!!VER:1.9,UID:MEGA,APX:0,APS:C,AAX:0,AAR:14.00,WSX:0,WSK:99,
$GPRMC,191026.000,A,3503.8812,N,07658.2058,W,4.08,241.78,120816,,,A*7C
$SDDBT,6.00,f,1.83,M,1.00,F*3B
$SDDPT,1.83,0.00,100.0*5E
$GPGGA,191028.000,3503.8800,N,07658.2082,W,1,09,0.9,-6.0,M,-34.8,M,,0000*45
$SDDPT,1.98,0.00,100.0*54
!!VER:1.9,UID:MEGA,APX:0,APS:C,AAX:0,AAR:14.00,WSX:0,WSK:99,
$SDDPT,2.02,0.00,100.0*54
$SDDBT,6.62,f,2.02,M,1.10,F*34
$VWVHW,,T,,M,3.38,N,6.25,K*5D
$VWVHW,,T,,M,3.38,N,6.25,K*5D
$VWVHW,,T,,M,3.38,N,6.25,K*5D
$VWVHW,,T,,M,3.38,N,6.25,K*5D
$VWVHW,,T,,M,3.38,N,6.25,K*5D
$SDDPT,2.02,0.00,100.0*54
$SDDBT,6.62,f,2.02,M,1.10,F*34
!!VER:1.9,UID:MEGA,APX:0,APS:C,AAX:0,AAR:14.00,WSX:0,WSK:99,
$WIMWV,347.0,R,10.79,N,A*2C
$SDDPT,2.07,0.00,100.0*51
$SDDBT,6.79,f,2.07,M,1.13,F*38
$SDDPT,2.07,0.00,100.0*51
!!VER:1.9,UID:MEGA,APX:0,APS:C,AAX:0,AAR:14.00,WSX:0,WSK:99,
$WIMWV,356.0,R,10.89,N,A*23
$SDDBT,6.79,f,2.07,M,1.13,F*38
$VWVHW,,T,,M,3.32,N,6.14,K*55
$SDDPT,2.08,0.00,100.0*5E
$SDDBT,6.82,f,2.08,M,1.13,F*33
$VWVLW,,N,,N*4C
$SDDPT,2.10,0.00,100.0*57
$SDDBT,6.89,f,2.10,M,1.14,F*36
!!VER:1.9,UID:MEGA,APX:0,APS:C,AAX:0,AAR:14.00,WSX:0,WSK:99,
$GPRMC,191036.000,A,3503.8737,N,07658.2148,W,3.85,208.09,120816,,,A*7C
$VWVLW,,N,,N*4C
$SDDPT,2.08,0.00,100.0*5E
$SDDPT,2.13,0.00,100.0*54
!!VER:1.9,UID:MEGA,APX:0,APS:C,AAX:0,AAR:14.00,WSX:0,WSK:99,
$GPRMC,191038.000,A,3503.8717,N,07658.2156,W,3.86,201.28,120816,,,A*76
$SDDPT,1.95,0.00,100.0*59
$SDDBT,6.39,f,1.95,M,1.06,F*30
$SDDPT,2.04,0.00,100.0*52
$SDDBT,6.69,f,2.04,M,1.11,F*38
!!VER:1.9,UID:MEGA,APX:0,APS:C,AAX:0,AAR:14.00,WSX:0,WSK:99,
$VWVLW,,N,,N*4C
$SDDPT,2.02,0.00,100.0*54
$SDDBT,6.62,f,2.02,M,1.10,F*34
!!VER:1.9,UID:MEGA,APX:0,APS:C,AAX:0,AAR:14.00,WSX:0,WSK:99,
$GPRMC,191041.000,A,3503.8684,N,07658.2168,W,3.98,199.57,120816,,,A*7B
$SDDPT,2.01,0.00,100.0*57
$SDDPT,2.34,0.00,100.0*51
$GPRMC,191043.000,A,3503.8663,N,07658.2174,W,3.97,196.61,120816,,,A*78
$SDDPT,1.98,0.00,100.0*54
!!VER:1.9,UID:MEGA,APX:0,APS:C,AAX:0,AAR:14.00,WSX:0,WSK:99,
$SDDBT,6.49,f,1.98,M,1.08,F*34
$SDDPT,1.96,0.00,100.0*5A
$SDDBT,6.43,f,1.96,M,1.07,F*3F
$SDDPT,1.95,0.00,100.0*59
$SDDBT,6.39,f,1.95,M,1.06,F*30
$VWVHW,,T,,M,2.98,N,5.51,K*56
$SDDPT,1.96,0.00,100.0*5A
!!VER:1.9,UID:MEGA,APX:0,APS:C,AAX:0,AAR:14.00,WSX:0,WSK:99,
$WIMWV,14.0,R,11.02,N,A*14
$SDDBT,6.43,f,1.96,M,1.07,F*3F
$GPRMC,191047.000,A,3503.8620,N,07658.2187,W,3.93,192.14,120816,,,A*75
$VWVHW,,T,,M,3.00,N,5.55,K*52
$SDDPT,1.93,0.00,100.0*5F
!!VER:1.9,UID:MEGA,APX:0,APS:C,AAX:0,AAR:14.00,WSX:0,WSK:99,
$WIMWV,18.0,R,11.12,N,A*19
$SDDPT,1.93,0.00,100.0*5F
$GPRMC,191049.000,A,3503.8598,N,07658.2193,W,4.04,189.52,120816,,,A*7F
!!VER:1.9,UID:MEGA,APX:0,APS:C,AAX:0,AAR:14.00,WSX:0,WSK:99,
$SDDPT,1.92,0.00,100.0*5E
$SDDPT,1.92,0.00,100.0*5E
$SDDPT,1.93,0.00,100.0*5F
$SDDBT,6.33,f,1.93,M,1.05,F*3F
$SDDPT,1.90,0.00,100.0*5C
!!VER:1.9,UID:MEGA,APX:0,APS:C,AAX:0,AAR:14.00,WSX:0,WSK:99,
$WIMWV,24.0,R,10.66,N,A*14
$SDDBT,6.23,f,1.90,M,1.03,F*3B
$GPGGA,191053.000,3503.8552,N,07658.2196,W,1,09,0.9,-7.2,M,-34.8,M,,0000*44
$VWVHW,,T,,M,3.06,N,5.66,K*54
$SDDPT,1.77,0.00,100.0*55
$SDDPT,1.93,0.00,100.0*5F
$GPRMC,191055.000,A,3503.8531,N,07658.2198,W,3.85,185.29,120816,,,A*74
$SDDPT,1.93,0.00,100.0*5F
$SDDPT,1.89,0.00,100.0*54
$SDDBT,6.20,f,1.89,M,1.03,F*30
$VWVHW,,T,,M,3.10,N,5.73,K*57
$SDDPT,1.96,0.00,100.0*5A
!!VER:1.9,UID:MEGA,APX:0,APS:C,AAX:0,AAR:14.00,WSX:0,WSK:99,
$WIMWV,22.0,R,11.62,N,A*17
$SDDBT,6.43,f,1.96,M,1.07,F*3F
$GPGGA,191058.000,3503.8499,N,07658.2201,W,1,10,0.9,-7.1,M,-34.8,M,,0000*4F
$VWVHW,,T,,M,3.08,N,5.69,K*55
$SDDPT,1.90,0.00,100.0*5C
$SDDPT,1.90,0.00,100.0*5C
$GPRMC,191100.000,A,3503.8477,N,07658.2201,W,3.81,181.97,120816,,,A*70
$SDDPT,1.90,0.00,100.0*5C
$SDDPT,1.92,0.00,100.0*5E
!!VER:1.9,UID:MEGA,APX:0,APS:C,AAX:0,AAR:14.00,WSX:0,WSK:99,
$SDDPT,1.92,0.00,100.0*5E
$SDDBT,6.30,f,1.92,M,1.05,F*3D
$VWVHW,,T,,M,3.08,N,5.69,K*55
$VWVLW,,N,,N*4C
!!VER:1.9,UID:MEGA,APX:0,APS:C,AAX:0,AAR:14.00,WSX:0,WSK:99,
$SDDPT,1.90,0.00,100.0*5C
$SDDBT,6.23,f,1.90,M,1.03,F*3B
$VWVHW,,T,,M,3.08,N,5.69,K*55
$SDDPT,1.90,0.00,100.0*5C
!!VER:1.9,UID:MEGA,APX:0,APS:C,AAX:0,AAR:14.00,WSX:0,WSK:99,
$WIMWV,33.0,R,11.77,N,A*13
$SDDBT,6.23,f,1.90,M,1.03,F*3B
$GPRMC,191105.000,A,3503.8421,N,07658.2201,W,3.77,180.03,120816,,,A*73
$VWVHW,,T,,M,3.10,N,5.73,K*57
$SDDPT,1.92,0.00,100.0*5E
!!VER:1.9,UID:MEGA,APX:0,APS:C,AAX:0,AAR:14.00,WSX:0,WSK:99,
$WIMWV,28.0,R,11.92,N,A*12
$SDDPT,1.90,0.00,100.0*5C
$GPRMC,191107.000,A,3503.8401,N,07658.2202,W,3.76,179.02,120816,,,A*76
$SDDPT,1.92,0.00,100.0*5E
$SDDPT,1.92,0.00,100.0*5E
!!VER:1.9,UID:MEGA,APX:0,APS:C,AAX:0,AAR:14.00,WSX:0,WSK:99,
$GPRMC,191109.000,A,3503.8380,N,07658.2203,W,3.72,180.25,120816,,,A*70
!!VER:1.9,UID:MEGA,APX:0,APS:C,AAX:0,AAR:14.00,WSX:0,WSK:99,
$GPRMC,191111.000,A,3503.8358,N,07658.2204,W,3.68,179.82,120816,,,A*7B
!!VER:1.9,UID:MEGA,APX:0,APS:C,AAX:0,AAR:14.00,WSX:0,WSK:99,
$WIMWV,34.0,R,12.00,N,A*17
!!VER:1.9,UID:MEGA,APX:0,APS:C,AAX:0,AAR:14.00,WSX:0,WSK:99,
$WIMWV,36.0,R,11.71,N,A*10
$VWVLW,,N,,N*4C
$GPRMC,191116.000,A,3503.8304,N,07658.2204,W,3.75,176.63,120816,,,A*79
$SDDPT,1.90,0.00,100.0*5C
!!VER:1.9,UID:MEGA,APX:0,APS:C,AAX:0,AAR:14.00,WSX:0,WSK:99,
$SDDPT,1.84,0.00,100.0*59
$SDDBT,6.03,f,1.84,M,1.00,F*3F
$VWVHW,,T,,M,3.16,N,5.84,K*59
!!VER:1.9,UID:MEGA,APX:0,APS:C,AAX:0,AAR:14.00,WSX:0,WSK:99,
$VWVLW,,N,,N*4C
$SDDPT,1.95,0.00,100.0*59
$SDDBT,6.39,f,1.95,M,1.06,F*30
!!VER:1.9,UID:MEGA,APX:0,APS:C,AAX:0,AAR:14.00,WSX:0,WSK:99,
$GPRMC,191119.000,A,3503.8275,N,07658.2204,W,3.92,175.31,120816,,,A*7C
$SDDPT,1.95,0.00,100.0*59
!!VER:1.9,UID:MEGA,APX:0,APS:C,AAX:0,AAR:14.00,WSX:0,WSK:99,
$WIMWV,35.0,R,11.41,N,A*10
!!VER:1.9,UID:MEGA,APX:0,APS:C,AAX:0,AAR:14.00,WSX:0,WSK:99,
$GPRMC,191121.000,A,3503.8255,N,07658.2203,W,3.88,174.39,120816,,,A*70
$SDDPT,1.95,0.00,100.0*59
$SDDPT,1.96,0.00,100.0*5A
!!VER:1.9,UID:MEGA,APX:0,APS:C,AAX:0,AAR:14.00,WSX:0,WSK:99,
$GPGGA,191123.000,3503.8235,N,07658.2202,W,1,10,0.9,-9.1,M,-34.8,M,,0000*4F
$VWVLW,,N,,N*4C
$SDDPT,1.95,0.00,100.0*59
!!VER:1.9,UID:MEGA,APX:0,APS:C,AAX:0,AAR:14.00,WSX:0,WSK:99,
$WIMWV,38.0,R,10.81,N,A*10
$GPRMC,191125.000,A,3503.8215,N,07658.2200,W,3.92,172.96,120816,,,A*7B
$SDDPT,1.99,0.00,100.0*55
$SDDPT,1.98,0.00,100.0*54
$SDDBT,6.49,f,1.98,M,1.08,F*34
$VWVHW,,T,,M,3.14,N,5.80,K*5F
$SDDPT,1.96,0.00,100.0*5A
!!VER:1.9,UID:MEGA,APX:0,APS:C,AAX:0,AAR:14.00,WSX:0,WSK:99,
$WIMWV,37.0,R,11.23,N,A*16
$SDDBT,6.43,f,1.96,M,1.07,F*3F
$GPGGA,191128.000,3503.8182,N,07658.2195,W,1,10,0.9,-9.2,M,-34.8,M,,0000*45
$VWVHW,,T,,M,3.12,N,5.77,K*51
$SDDPT,1.96,0.00,100.0*5A
$SDDPT,1.99,0.00,100.0*55
$GPRMC,191130.000,A,3503.8161,N,07658.2191,W,4.04,171.01,120816,,,A*71
$SDDPT,2.01,0.00,100.0*57
$SDDPT,2.01,0.00,100.0*57
$SDDBT,6.59,f,2.01,M,1.09,F*37
$VWVHW,,T,,M,3.14,N,5.80,K*5F
$SDDPT,2.01,0.00,100.0*57
!!VER:1.9,UID:MEGA,APX:0,APS:C,AAX:0,AAR:14.00,WSX:0,WSK:99,
$WIMWV,37.0,R,10.52,N,A*11
$SDDBT,6.59,f,2.01,M,1.09,F*37
$GPGGA,191133.000,3503.8130,N,07658.2184,W,1,10,0.9,-9.3,M,-34.8,M,,0000*47
$VWVHW,,T,,M,3.14,N,5.80,K*5F
$SDDPT,1.98,0.00,100.0*54
$SDDPT,2.04,0.00,100.0*52
$GPRMC,191135.000,A,3503.8110,N,07658.2179,W,3.96,167.74,120816,,,A*7D
$SDDPT,1.99,0.00,100.0*55
!!VER:1.9,UID:MEGA,APX:0,APS:C,AAX:0,AAR:14.00,WSX:0,WSK:99,
$WIMWV,42.0,R,10.14,N,A*11
$SDDPT,2.02,0.00,100.0*54
!!VER:1.9,UID:MEGA,APX:0,APS:C,AAX:0,AAR:14.00,WSX:0,WSK:99,
$SDDPT,1.99,0.00,100.0*55
$SDDBT,6.52,f,1.99,M,1.08,F*3F
!!VER:1.9,UID:MEGA,APX:0,APS:C,AAX:0,AAR:14.00,WSX:0,WSK:99,
$WIMWV,41.0,R,10.52,N,A*10
$VWVHW,,T,,M,3.16,N,5.84,K*59
$GPGGA,191138.000,3503.8078,N,07658.2170,W,1,10,0.9,-9.4,M,-34.8,M,,0000*4D
$VWVLW,,N,,N*4C
$SDDPT,2.02,0.00,100.0*54
$SDDPT,2.02,0.00,100.0*54
!!VER:1.9,UID:MEGA,APX:0,APS:C,AAX:0,AAR:14.00,WSX:0,WSK:99,
$SDDPT,2.01,0.00,100.0*57
$SDDBT,6.59,f,2.01,M,1.09,F*37
!!VER:1.9,UID:MEGA,APX:0,APS:C,AAX:0,AAR:14.00,WSX:0,WSK:99,
$WIMWV,38.0,R,10.52,N,A*1E
$VWVHW,,T,,M,3.12,N,5.77,K*51
$VWVLW,,N,,N*4C
!!VER:1.9,UID:MEGA,APX:0,APS:C,AAX:0,AAR:14.00,WSX:0,WSK:99,
$SDDPT,2.02,0.00,100.0*54
$SDDBT,6.62,f,2.02,M,1.10,F*34
$VWVHW,,T,,M,3.10,N,5.73,K*57
$SDDPT,2.01,0.00,100.0*57
!!VER:1.9,UID:MEGA,APX:0,APS:C,AAX:0,AAR:14.00,WSX:0,WSK:99,
$WIMWV,32.0,R,10.08,N,A*1B
$SDDBT,6.59,f,2.01,M,1.09,F*37
$GPGGA,191143.000,3503.8025,N,07658.2153,W,1,10,0.9,-9.3,M,-34.8,M,,0000*4F
$VWVHW,,T,,M,3.10,N,5.73,K*57
$SDDPT,2.02,0.00,100.0*54
$SDDPT,2.04,0.00,100.0*52
$GPRMC,191145.000,A,3503.8004,N,07658.2146,W,3.96,166.03,120816,,,A*73
$SDDPT,2.04,0.00,100.0*52
$SDDPT,2.04,0.00,100.0*52
!!VER:1.9,UID:MEGA,APX:0,APS:C,AAX:0,AAR:14.00,WSX:0,WSK:99,
$SDDPT,2.04,0.00,100.0*52
$SDDBT,6.69,f,2.04,M,1.11,F*38
$VWVHW,,T,,M,3.22,N,5.95,K*5E
$VWVLW,,N,,N*4C
!!VER:1.9,UID:MEGA,APX:0,APS:C,AAX:0,AAR:14.00,WSX:0,WSK:99,
$SDDPT,2.02,0.00,100.0*54
$SDDBT,6.62,f,2.02,M,1.10,F*34
$VWVHW,,T,,M,3.24,N,5.99,K*54
$SDDPT,2.04,0.00,100.0*52
!!VER:1.9,UID:MEGA,APX:0,APS:C,AAX:0,AAR:14.00,WSX:0,WSK:99,
$WIMWV,39.0,R,11.46,N,A*1B
$SDDBT,6.69,f,2.04,M,1.11,F*38
$GPRMC,191150.000,A,3503.7951,N,07658.2130,W,3.93,165.59,120816,,,A*79
$VWVHW,,T,,M,3.24,N,5.99,K*54
$SDDPT,2.04,0.00,100.0*52
!!VER:1.9,UID:MEGA,APX:0,APS:C,AAX:0,AAR:14.00,WSX:0,WSK:99,
$WIMWV,39.0,R,10.83,N,A*13
$SDDPT,2.05,0.00,100.0*53
$GPRMC,191152.000,A,3503.7931,N,07658.2123,W,3.80,164.92,120816,,,A*7B
!!VER:1.9,UID:MEGA,APX:0,APS:C,AAX:0,AAR:14.00,WSX:0,WSK:99,
$SDDPT,2.05,0.00,100.0*53
$SDDPT,2.04,0.00,100.0*52
$VWVLW,,N,,N*4C
!!VER:1.9,UID:MEGA,APX:0,APS:C,AAX:0,AAR:14.00,WSX:0,WSK:99,
$SDDPT,2.04,0.00,100.0*52
$SDDBT,6.69,f,2.04,M,1.11,F*38
$VWVHW,,T,,M,3.20,N,5.92,K*5B
$GPRMC,191155.000,A,3503.7900,N,07658.2112,W,3.86,164.63,120816,,,A*74
$VWVLW,,N,,N*4C
$SDDPT,2.04,0.00,100.0*52
$SDDPT,2.08,0.00,100.0*5E
!!VER:1.9,UID:MEGA,APX:0,APS:C,AAX:0,AAR:14.00,WSX:0,WSK:99,
$SDDPT,2.07,0.00,100.0*51
$SDDBT,6.79,f,2.07,M,1.13,F*38
$VWVHW,,T,,M,3.16,N,5.84,K*59
$VWVLW,,N,,N*4C
!!VER:1.9,UID:MEGA,APX:0,APS:C,AAX:0,AAR:14.00,WSX:0,WSK:99,
$SDDPT,2.07,0.00,100.0*51
$SDDBT,6.79,f,2.07,M,1.13,F*38
$VWVHW,,T,,M,3.16,N,5.84,K*59
$SDDPT,2.07,0.00,100.0*51
!!VER:1.9,UID:MEGA,APX:0,APS:C,AAX:0,AAR:14.00,WSX:0,WSK:99,
$WIMWV,47.0,R,10.93,N,A*1B
$SDDBT,6.79,f,2.07,M,1.13,F*38
$GPRMC,191200.000,A,3503.7846,N,07658.2095,W,3.99,164.39,120816,,,A*7B
$VWVHW,,T,,M,3.14,N,5.80,K*5F
$SDDPT,2.07,0.00,100.0*51
!!VER:1.9,UID:MEGA,APX:0,APS:C,AAX:0,AAR:14.00,WSX:0,WSK:99,
$WIMWV,46.0,R,11.73,N,A*15
$SDDPT,2.08,0.00,100.0*5E
!!VER:1.9,UID:MEGA,APX:0,APS:C,AAX:0,AAR:14.00,WSX:0,WSK:99,
$SDDPT,2.08,0.00,100.0*5E
$SDDBT,6.82,f,2.08,M,1.13,F*33
!!VER:1.9,UID:MEGA,APX:0,APS:C,AAX:0,AAR:14.00,WSX:0,WSK:99,
$VWVHW,,T,,M,3.12,N,5.77,K*51
$GPGGA,191203.000,3503.7814,N,07658.2083,W,1,10,0.9,-10.7,M,-34.8,M,,0000*7D
$VWVLW,,N,,N*4C
$SDDPT,2.05,0.00,100.0*53
$SDDPT,2.10,0.00,100.0*57
!!VER:1.9,UID:MEGA,APX:0,APS:C,AAX:0,AAR:14.00,WSX:0,WSK:99,
$SDDPT,2.07,0.00,100.0*51
$SDDBT,6.79,f,2.07,M,1.13,F*38
!!VER:1.9,UID:MEGA,APX:0,APS:C,AAX:0,AAR:14.00,WSX:0,WSK:99,
$WIMWV,53.0,R,11.86,N,A*1B
$VWVHW,,T,,M,3.24,N,5.99,K*54
$VWVLW,,N,,N*4C
!!VER:1.9,UID:MEGA,APX:0,APS:C,AAX:0,AAR:14.00,WSX:0,WSK:99,
$SDDPT,2.17,0.00,100.0*50
$SDDBT,7.12,f,2.17,M,1.18,F*3E
$VWVHW,,T,,M,3.28,N,6.06,K*5D
$SDDPT,2.19,0.00,100.0*5E
!!VER:1.9,UID:MEGA,APX:0,APS:C,AAX:0,AAR:14.00,WSX:0,WSK:99,
$WIMWV,47.0,R,11.65,N,A*13
$SDDBT,7.18,f,2.19,M,1.19,F*3B
!!VER:1.9,UID:MEGA,APX:0,APS:C,AAX:0,AAR:14.00,WSX:0,WSK:99,
$GPGGA,191208.000,3503.7763,N,07658.2063,W,1,10,0.9,-10.8,M,-34.8,M,,0000*78
$VWVHW,,T,,M,3.28,N,6.06,K*5D
$SDDPT,2.10,0.00,100.0*57
$SDDPT,2.13,0.00,100.0*54
$GPRMC,191210.000,A,3503.7743,N,07658.2056,W,3.83,164.03,120816,,,A*7D
!!VER:1.9,UID:MEGA,APX:0,APS:C,AAX:0,AAR:14.00,WSX:0,WSK:99,
$VWVLW,,N,,N*4C
$SDDPT,2.13,0.00,100.0*54
!!VER:1.9,UID:MEGA,APX:0,APS:C,AAX:0,AAR:14.00,WSX:0,WSK:99,
$WIMWV,42.0,R,11.67,N,A*14
$SDDPT,2.11,0.00,100.0*56
!!VER:1.9,UID:MEGA,APX:0,APS:C,AAX:0,AAR:14.00,WSX:0,WSK:99,
$SDDPT,2.16,0.00,100.0*51
$SDDBT,7.08,f,2.16,M,1.18,F*34
$VWVHW,,T,,M,3.12,N,5.77,K*51
$GPGGA,191213.000,3503.7712,N,07658.2046,W,1,10,0.9,-11.2,M,-34.8,M,,0000*78
$VWVLW,,N,,N*4C
$SDDPT,2.16,0.00,100.0*51
$SDDPT,2.11,0.00,100.0*56
!!VER:1.9,UID:MEGA,APX:0,APS:C,AAX:0,AAR:14.00,WSX:0,WSK:99,
$SDDPT,2.11,0.00,100.0*56
$SDDBT,6.92,f,2.11,M,1.15,F*3C
!!VER:1.9,UID:MEGA,APX:0,APS:C,AAX:0,AAR:14.00,WSX:0,WSK:99,
$WIMWV,44.0,R,11.33,N,A*13
$VWVHW,,T,,M,3.14,N,5.80,K*5F
$GPRMC,191216.000,A,3503.7682,N,07658.2035,W,3.84,164.38,120816,,,A*7D
$VWVLW,,N,,N*4C
!!VER:1.9,UID:MEGA,APX:0,APS:C,AAX:0,AAR:14.00,WSX:0,WSK:99,
$SDDPT,2.11,0.00,100.0*56
$SDDPT,2.11,0.00,100.0*56
!!VER:1.9,UID:MEGA,APX:0,APS:C,AAX:0,AAR:14.00,WSX:0,WSK:99,
$GPGSA,A,3,06,19,17,02,12,28,03,09,24,23,,,1.4,0.9,1.1*30
$SDDPT,2.11,0.00,100.0*56
!!VER:1.9,UID:MEGA,APX:0,APS:C,AAX:0,AAR:14.00,WSX:0,WSK:99,
$SDDBT,6.92,f,2.11,M,1.15,F*3C
$SDDPT,2.11,0.00,100.0*56
$SDDBT,6.92,f,2.11,M,1.15,F*3C
$SDDPT,2.16,0.00,100.0*51
!!VER:1.9,UID:MEGA,APX:0,APS:C,AAX:0,AAR:14.00,WSX:0,WSK:99,
$WIMWV,42.0,R,11.67,N,A*14
$SDDBT,7.08,f,2.16,M,1.18,F*34
$VWVHW,,T,,M,3.20,N,5.92,K*5B
$SDDPT,2.13,0.00,100.0*54
$SDDBT,6.98,f,2.13,M,1.16,F*37
!!VER:1.9,UID:MEGA,APX:0,APS:C,AAX:0,AAR:14.00,WSX:0,WSK:99,
$GPRMC,191222.000,A,3503.7618,N,07658.2013,W,3.91,165.22,120816,,,A*73
$SDDPT,2.14,0.00,100.0*53
$SDDPT,2.13,0.00,100.0*54
$GPRMC,191224.000,A,3503.7597,N,07658.2006,W,3.89,164.67,120816,,,A*7C
$SDDPT,2.16,0.00,100.0*51
$SDDPT,2.16,0.00,100.0*51
!!VER:1.9,UID:MEGA,APX:0,APS:C,AAX:0,AAR:14.00,WSX:0,WSK:99,
$SDDPT,2.14,0.00,100.0*53
$SDDBT,7.02,f,2.14,M,1.17,F*33
!!VER:1.9,UID:MEGA,APX:0,APS:C,AAX:0,AAR:14.00,WSX:0,WSK:99,
$WIMWV,43.0,R,12.52,N,A*10
$VWVHW,,T,,M,3.08,N,5.69,K*55
$VWVLW,,N,,N*4C
$SDDPT,2.14,0.00,100.0*53
$SDDBT,7.02,f,2.14,M,1.17,F*33
$VWVHW,,T,,M,3.04,N,5.62,K*52
$SDDPT,2.16,0.00,100.0*51
!!VER:1.9,UID:MEGA,APX:0,APS:C,AAX:0,AAR:14.00,WSX:0,WSK:99,
$SDDBT,7.08,f,2.16,M,1.18,F*34
!!VER:1.9,UID:MEGA,APX:0,APS:C,AAX:0,AAR:14.00,WSX:0,WSK:99,
$GPRMC,191229.000,A,3503.7545,N,07658.1989,W,3.81,164.48,120816,,,A*76
$VWVHW,,T,,M,3.08,N,5.69,K*55
$SDDPT,2.14,0.00,100.0*53
$SDDPT,2.14,0.00,100.0*53
$GPRMC,191231.000,A,3503.7525,N,07658.1982,W,3.78,164.70,120816,,,A*7F
$SDDPT,2.14,0.00,100.0*53
$SDDPT,2.14,0.00,100.0*53
!!VER:1.9,UID:MEGA,APX:0,APS:C,AAX:0,AAR:14.00,WSX:0,WSK:99,
$SDDPT,2.14,0.00,100.0*53
$SDDBT,7.02,f,2.14,M,1.17,F*33
!!VER:1.9,UID:MEGA,APX:0,APS:C,AAX:0,AAR:14.00,WSX:0,WSK:99,
$WIMWV,40.0,R,11.18,N,A*1E
$VWVHW,,T,,M,3.10,N,5.73,K*57
$VWVLW,,N,,N*4C
$SDDPT,2.16,0.00,100.0*51
$SDDBT,7.08,f,2.16,M,1.18,F*34
$VWVHW,,T,,M,3.10,N,5.73,K*57
$SDDPT,2.16,0.00,100.0*51
$SDDBT,7.08,f,2.16,M,1.18,F*34
!!VER:1.9,UID:MEGA,APX:0,APS:C,AAX:0,AAR:14.00,WSX:0,WSK:99,
$GPRMC,191236.000,A,3503.7472,N,07658.1966,W,3.85,165.44,120816,,,A*75
$VWVHW,,T,,M,3.14,N,5.80,K*5F
$SDDPT,2.16,0.00,100.0*51
$SDDPT,2.16,0.00,100.0*51
$GPGGA,191238.000,3503.7451,N,07658.1959,W,1,10,0.9,-10.5,M,-34.8,M,,0000*77
$SDDPT,2.16,0.00,100.0*51
!!VER:1.9,UID:MEGA,APX:0,APS:C,AAX:0,AAR:14.00,WSX:0,WSK:99,
$WIMWV,43.0,R,10.91,N,A*1D
$GPRMC,191240.000,A,3503.7431,N,07658.1953,W,3.77,165.69,120816,,,A*77
!!VER:1.9,UID:MEGA,APX:0,APS:C,AAX:0,AAR:14.00,WSX:0,WSK:99,
!!VER:1.9,UID:MEGA,APX:0,APS:C,AAX:0,AAR:14.00,WSX:0,WSK:99,
!!VER:1.9,UID:MEGA,APX:0,APS:C,AAX:0,AAR:14.00,WSX:0,WSK:99,
$GPGSA,A,3,06,19,17,02,12,28,03,09,24,23,,,1.4,0.9,1.1*30
!!VER:1.9,UID:MEGA,APX:0,APS:C,AAX:0,AAR:14.00,WSX:0,WSK:99,
!!VER:1.9,UID:MEGA,APX:0,APS:C,AAX:0,AAR:14.00,WSX:0,WSK:99,
$GPRMC,191246.000,A,3503.7367,N,07658.1934,W,3.83,165.57,120816,,,A*72
$SDDPT,2.14,0.00,100.0*53
!!VER:1.9,UID:MEGA,APX:0,APS:C,AAX:0,AAR:14.00,WSX:0,WSK:99,
$SDDPT,2.13,0.00,100.0*54
$SDDBT,6.98,f,2.13,M,1.16,F*37
$VWVHW,,T,,M,3.10,N,5.73,K*57
$VWVHW,,T,,M,3.10,N,5.73,K*57
!!VER:1.9,UID:MEGA,APX:0,APS:C,AAX:0,AAR:14.00,WSX:0,WSK:99,
$WIMWV,36.0,R,12.29,N,A*1E
$VWVHW,,T,,M,3.10,N,5.73,K*57
$SDDPT,2.08,0.00,100.0*5E
$SDDBT,6.82,f,2.08,M,1.13,F*33
$SDDPT,2.10,0.00,100.0*57
!!VER:1.9,UID:MEGA,APX:0,APS:C,AAX:0,AAR:14.00,WSX:0,WSK:99,
$SDDPT,2.08,0.00,100.0*5E
$SDDBT,6.82,f,2.08,M,1.13,F*33
$SDDPT,2.08,0.00,100.0*5E
$SDDBT,6.82,f,2.08,M,1.13,F*33
$VWVHW,,T,,M,3.10,N,5.73,K*57
$SDDPT,2.08,0.00,100.0*5E
!!VER:1.9,UID:MEGA,APX:0,APS:C,AAX:0,AAR:14.00,WSX:0,WSK:99,
$WIMWV,43.0,R,12.92,N,A*1C
$SDDBT,6.82,f,2.08,M,1.13,F*33
$GPRMC,191255.000,A,3503.7273,N,07658.1907,W,3.77,168.31,120816,,,A*72
$VWVHW,,T,,M,3.10,N,5.73,K*57
$SDDPT,2.47,0.00,100.0*55
!!VER:1.9,UID:MEGA,APX:0,APS:C,AAX:0,AAR:14.00,WSX:0,WSK:99,
$WIMWV,43.0,R,12.09,N,A*1E
$SDDPT,2.07,0.00,100.0*51
$GPRMC,191257.000,A,3503.7252,N,07658.1902,W,3.88,169.05,120816,,,A*70
$SDDPT,2.07,0.00,100.0*51
$SDDPT,2.05,0.00,100.0*53
!!VER:1.9,UID:MEGA,APX:0,APS:C,AAX:0,AAR:14.00,WSX:0,WSK:99,
$GPRMC,191259.000,A,3503.7231,N,07658.1897,W,3.77,169.87,120816,,,A*7C
!!VER:1.9,UID:MEGA,APX:0,APS:C,AAX:0,AAR:14.00,WSX:0,WSK:99,
$GPRMC,191301.000,A,3503.7210,N,07658.1893,W,3.77,169.88,120816,,,A*78
!!VER:1.9,UID:MEGA,APX:0,APS:C,AAX:0,AAR:14.00,WSX:0,WSK:99,
$WIMWV,38.0,R,12.02,N,A*19
!!VER:1.9,UID:MEGA,APX:0,APS:C,AAX:0,AAR:14.00,WSX:0,WSK:99,
$GPRMC,191304.000,A,3503.7178,N,07658.1887,W,3.77,171.82,120816,,,A*76
$VWVLW,,N,,N*4C
$SDDPT,2.05,0.00,100.0*53
$SDDPT,2.02,0.00,100.0*54
!!VER:1.9,UID:MEGA,APX:0,APS:C,AAX:0,AAR:14.00,WSX:0,WSK:99,
$SDDPT,2.04,0.00,100.0*52
$SDDBT,6.69,f,2.04,M,1.11,F*38
$VWVHW,,T,,M,3.20,N,5.92,K*5B
$VWVLW,,N,,N*4C
!!VER:1.9,UID:MEGA,APX:0,APS:C,AAX:0,AAR:14.00,WSX:0,WSK:99,
$SDDPT,2.05,0.00,100.0*53
$SDDBT,6.72,f,2.05,M,1.12,F*30
$VWVHW,,T,,M,3.18,N,5.88,K*5B
$SDDPT,2.05,0.00,100.0*53
!!VER:1.9,UID:MEGA,APX:0,APS:C,AAX:0,AAR:14.00,WSX:0,WSK:99,
$WIMWV,38.0,R,11.10,N,A*19
$SDDBT,6.72,f,2.05,M,1.12,F*30
$GPRMC,191309.000,A,3503.7125,N,07658.1879,W,3.88,174.48,120816,,,A*71
$VWVHW,,T,,M,3.16,N,5.84,K*59
$SDDPT,2.05,0.00,100.0*53
!!VER:1.9,UID:MEGA,APX:0,APS:C,AAX:0,AAR:14.00,WSX:0,WSK:99,
$WIMWV,37.0,R,11.46,N,A*15
$SDDPT,2.05,0.00,100.0*53
$GPRMC,191311.000,A,3503.7105,N,07658.1878,W,3.75,175.37,120816,,,A*70
!!VER:1.9,UID:MEGA,APX:0,APS:C,AAX:0,AAR:14.00,WSX:0,WSK:99,
$SDDPT,2.05,0.00,100.0*53
$SDDPT,2.05,0.00,100.0*53
!!VER:1.9,UID:MEGA,APX:0,APS:C,AAX:0,AAR:14.00,WSX:0,WSK:99,
$GPGGA,191313.000,3503.7084,N,07658.1876,W,1,10,0.9,-9.7,M,-34.8,M,,0000*45
$VWVLW,,N,,N*4C
!!VER:1.9,UID:MEGA,APX:0,APS:C,AAX:0,AAR:14.00,WSX:0,WSK:99,
$WIMWV,35.0,R,11.56,N,A*16
$SDDPT,2.02,0.00,100.0*54
$GPRMC,191315.000,A,3503.7063,N,07658.1873,W,3.78,174.06,120816,,,A*70
$SDDPT,2.05,0.00,100.0*53
$SDDPT,2.05,0.00,100.0*53
$SDDBT,6.72,f,2.05,M,1.12,F*30
$VWVHW,,T,,M,3.12,N,5.77,K*51
$SDDPT,2.01,0.00,100.0*57
!!VER:1.9,UID:MEGA,APX:0,APS:C,AAX:0,AAR:14.00,WSX:0,WSK:99,
$WIMWV,35.0,R,11.65,N,A*16
$SDDBT,6.59,f,2.01,M,1.09,F*37
$GPGGA,191318.000,3503.7032,N,07658.1869,W,1,10,0.9,-9.1,M,-34.8,M,,0000*4B
$VWVHW,,T,,M,3.12,N,5.77,K*51
$SDDPT,2.04,0.00,100.0*52
$SDDPT,2.04,0.00,100.0*52
$GPRMC,191320.000,A,3503.7010,N,07658.1868,W,3.77,175.11,120816,,,A*70
$SDDPT,2.05,0.00,100.0*53
!!VER:1.9,UID:MEGA,APX:0,APS:C,AAX:0,AAR:14.00,WSX:0,WSK:99,
$WIMWV,33.0,R,11.83,N,A*18
$SDDPT,1.96,0.00,100.0*5A
!!VER:1.9,UID:MEGA,APX:0,APS:C,AAX:0,AAR:14.00,WSX:0,WSK:99,
$SDDPT,2.10,0.00,100.0*57
$SDDBT,6.89,f,2.10,M,1.14,F*36
!!VER:1.9,UID:MEGA,APX:0,APS:C,AAX:0,AAR:14.00,WSX:0,WSK:99,
$WIMWV,30.0,R,12.25,N,A*14
$VWVHW,,T,,M,3.16,N,5.84,K*59
$GPGGA,191323.000,3503.6978,N,07658.1865,W,1,10,0.9,-10.1,M,-34.8,M,,0000*71
$VWVLW,,N,,N*4C
$SDDPT,2.07,0.00,100.0*51
$SDDPT,2.05,0.00,100.0*53
!!VER:1.9,UID:MEGA,APX:0,APS:C,AAX:0,AAR:14.00,WSX:0,WSK:99,
$SDDPT,2.05,0.00,100.0*53
$SDDBT,6.72,f,2.05,M,1.12,F*30
$VWVHW,,T,,M,3.16,N,5.84,K*59
$VWVLW,,N,,N*4C
!!VER:1.9,UID:MEGA,APX:0,APS:C,AAX:0,AAR:14.00,WSX:0,WSK:99,
$SDDPT,2.05,0.00,100.0*53
$SDDBT,6.72,f,2.05,M,1.12,F*30
$VWVHW,,T,,M,3.14,N,5.80,K*5F
$SDDPT,2.05,0.00,100.0*53
!!VER:1.9,UID:MEGA,APX:0,APS:C,AAX:0,AAR:14.00,WSX:0,WSK:99,
$WIMWV,38.0,R,12.09,N,A*12
$SDDBT,6.72,f,2.05,M,1.12,F*30
$GPGGA,191328.000,3503.6924,N,07658.1861,W,1,10,0.9,-10.5,M,-34.8,M,,0000*73
$VWVHW,,T,,M,3.14,N,5.80,K*5F
$SDDPT,2.07,0.00,100.0*51
$SDDPT,2.07,0.00,100.0*51
$GPRMC,191330.000,A,3503.6902,N,07658.1858,W,3.82,175.18,120816,,,A*7A
!!VER:1.9,UID:MEGA,APX:0,APS:C,AAX:0,AAR:14.00,WSX:0,WSK:99,
$SDDPT,2.04,0.00,100.0*52
$SDDPT,2.04,0.00,100.0*52
$GPRMC,191332.000,A,3503.6882,N,07658.1856,W,3.75,175.45,120816,A*7F
$SDDPT,2.01,0.00,100.0*57
$SDDBT,6.59,f,2.01,M,1.09,F*37
$SDDPT,2.04,0.00,100.0*52
!!VER:1.9,UID:MEGA,APX:0,APS:C,AAX:0,AAR:14.00,WSX:0,WSK:99,
$SDDPT,2.02,0.00,100.0*54
$SDDBT,6.62,f,2.02,M,1.10,F*34
$VWVHW,,T,,M,3.10,N,5.73,K*57
!!VER:1.9,UID:MEGA,APX:0,APS:C,AAX:0,AAR:14.00,WSX:0,WSK:99,
$VWVLW,,N,,N*4C
$SDDPT,2.04,0.00,100.0*52
$SDDBT,6.69,f,2.04,M,1.11,F*38
!!VER:1.9,UID:MEGA,APX:0,APS:C,AAX:0,AAR:14.00,WSX:0,WSK:99,
$GPRMC,191336.000,A,3503.6843,N,07658.1852,W,3.72,174.66,120816,,,A*75
$SDDPT,2.02,0.00,100.0*54
!!VER:1.9,UID:MEGA,APX:0,APS:C,AAX:0,AAR:14.00,WSX:0,WSK:99,
$WIMWV,36.0,R,11.88,N,A*16
$SDDPT,2.52,0.00,100.0*51
$SDDBT,8.26,f,2.52,M,1.37,F*3A
$VWVHW,,T,,M,3.10,N,5.73,K*57
$SDDPT,2.02,0.00,100.0*54
!!VER:1.9,UID:MEGA,APX:0,APS:C,AAX:0,AAR:14.00,WSX:0,WSK:99,
$WIMWV,43.0,R,11.75,N,A*16
$SDDBT,6.62,f,2.02,M,1.10,F*34
$VWVHW,,T,,M,3.12,N,5.77,K*51
$SDDPT,2.04,0.00,100.0*52
$SDDBT,6.69,f,2.04,M,1.11,F*38
!!VER:1.9,UID:MEGA,APX:0,APS:C,AAX:0,AAR:14.00,WSX:0,WSK:99,
$GPRMC,191341.000,A,3503.6791,N,07658.1847,W,3.88,174.92,120816,,,A*7F
$SDDPT,2.02,0.00,100.0*54
!!VER:1.9,UID:MEGA,APX:0,APS:C,AAX:0,AAR:14.00,WSX:0,WSK:99,
$WIMWV,43.0,R,10.41,N,A*10
!!VER:1.9,UID:MEGA,APX:0,APS:C,AAX:0,AAR:14.00,WSX:0,WSK:99,
$SDDPT,2.04,0.00,100.0*52
$SDDBT,6.69,f,2.04,M,1.11,F*38
$VWVHW,,T,,M,3.10,N,5.73,K*57
$SDDPT,2.01,0.00,100.0*57
$SDDBT,6.59,f,2.01,M,1.09,F*37
$VWVHW,,T,,M,3.08,N,5.69,K*55
$SDDPT,2.01,0.00,100.0*57
$SDDBT,6.59,f,2.01,M,1.09,F*37
!!VER:1.9,UID:MEGA,APX:0,APS:C,AAX:0,AAR:14.00,WSX:0,WSK:99,
$GPRMC,191346.000,A,3503.6739,N,07658.1841,W,3.75,174.25,120816,,,A*72
$VWVHW,,T,,M,3.04,N,5.62,K*52
$SDDPT,2.04,0.00,100.0*52
$SDDPT,2.02,0.00,100.0*54
$GPGGA,191348.000,3503.6718,N,07658.1838,W,1,11,0.8,-10.2,M,-34.8,M,,0000*7F
$SDDPT,2.04,0.00,100.0*52
!!VER:1.9,UID:MEGA,APX:0,APS:C,AAX:0,AAR:14.00,WSX:0,WSK:99,
$WIMWV,33.0,R,11.16,N,A*14
$SDDPT,2.07,0.00,100.0*51
$GPRMC,191350.000,A,3503.6697,N,07658.1835,W,3.84,173.57,120816,,,A*7F
$SDDPT,2.04,0.00,100.0*52
!!VER:1.9,UID:MEGA,APX:0,APS:C,AAX:0,AAR:14.00,WSX:0,WSK:99,
$SDDPT,2.04,0.00,100.0*52
$SDDBT,6.69,f,2.04,M,1.11,F*38
$VWVHW,,T,,M,3.12,N,5.77,K*51
$SDDPT,2.37,0.00,100.0*52
!!VER:1.9,UID:MEGA,APX:0,APS:C,AAX:0,AAR:14.00,WSX:0,WSK:99,
$WIMWV,37.0,R,11.92,N,A*1C
$SDDBT,7.77,f,2.37,M,1.29,F*3D
$VWVHW,,T,,M,3.16,N,5.84,K*59
$SDDPT,2.04,0.00,100.0*52
$SDDBT,6.69,f,2.04,M,1.11,F*38
!!VER:1.9,UID:MEGA,APX:0,APS:C,AAX:0,AAR:14.00,WSX:0,WSK:99,
$SDDPT,2.05,0.00,100.0*53
!!VER:1.9,UID:MEGA,APX:0,APS:C,AAX:0,AAR:14.00,WSX:0,WSK:99,
$WIMWV,36.0,R,11.96,N,A*19
$SDDPT,2.05,0.00,100.0*53
$SDDPT,2.07,0.00,100.0*51
$GPRMC,191359.000,A,3503.6603,N,07658.1824,W,3.67,173.30,120816,,,A*77
$VWVLW,,N,,N*4C
!!VER:1.9,UID:MEGA,APX:0,APS:C,AAX:0,AAR:14.00,WSX:0,WSK:99,
$SDDPT,2.05,0.00,100.0*53
$SDDPT,2.05,0.00,100.0*53
!!VER:1.9,UID:MEGA,APX:0,APS:C,AAX:0,AAR:14.00,WSX:0,WSK:99,
$SDDPT,2.04,0.00,100.0*52
$SDDBT,6.69,f,2.04,M,1.11,F*38
$VWVHW,,T,,M,3.08,N,5.69,K*55
$VWVLW,,N,,N*4C
!!VER:1.9,UID:MEGA,APX:0,APS:C,AAX:0,AAR:14.00,WSX:0,WSK:99,
$SDDPT,2.04,0.00,100.0*52
$SDDBT,6.69,f,2.04,M,1.11,F*38
$VWVHW,,T,,M,3.04,N,5.62,K*52
$VWVHW,,T,,M,3.04,N,5.62,K*52
!!VER:1.9,UID:MEGA,APX:0,APS:C,AAX:0,AAR:14.00,WSX:0,WSK:99,
$WIMWV,38.0,R,12.08,N,A*13
$VWVHW,,T,,M,3.04,N,5.62,K*52
$GPRMC,191404.000,A,3503.6552,N,07658.1817,W,3.66,174.08,120816,,,A*72
$VWVHW,,T,,M,3.04,N,5.62,K*52
$VWVHW,,T,,M,3.04,N,5.62,K*52
$VWVHW,,T,,M,3.04,N,5.62,K*52
!!VER:1.9,UID:MEGA,APX:0,APS:C,AAX:0,AAR:14.00,WSX:0,WSK:99,
$GPRMC,191406.000,A,3503.6531,N,07658.1814,W,3.69,173.29,120816,,,A*7D
$VWVHW,,T,,M,3.04,N,5.62,K*52
$VWVHW,,T,,M,3.04,N,5.62,K*52
$VWVHW,,T,,M,3.04,N,5.62,K*52
$VWVHW,,T,,M,3.04,N,5.62,K*52
$VWVHW,,T,,M,3.04,N,5.62,K*52
!!VER:1.9,UID:MEGA,APX:0,APS:C,AAX:0,AAR:14.00,WSX:0,WSK:99,
$GPRMC,191409.000,A,3503.6500,N,07658.1809,W,3.70,173.05,120816,,,A*7A
$VWVHW,,T,,M,3.04,N,5.62,K*52
$SDDPT,2.05,0.00,100.0*53
$VWVLW,,N,,N*4C
$GPRMC,191411.000,A,3503.6479,N,07658.1807,W,3.73,173.17,120816,,,A*72
$SDDPT,2.08,0.00,100.0*5E
$SDDBT,6.82,f,2.08,M,1.13,F*33
!!VER:1.9,UID:MEGA,APX:0,APS:C,AAX:0,AAR:14.00,WSX:0,WSK:99,
$WIMWV,40.0,R,12.17,N,A*12
$SDDPT,2.07,0.00,100.0*51
$SDDBT,6.79,f,2.07,M,1.13,F*38
$SDDPT,2.10,0.00,100.0*57
!!VER:1.9,UID:MEGA,APX:0,APS:C,AAX:0,AAR:14.00,WSX:0,WSK:99,
$WIMWV,35.0,R,11.27,N,A*10
$SDDBT,6.89,f,2.10,M,1.14,F*36
$VWVHW,,T,,M,3.08,N,5.69,K*55
$SDDPT,2.08,0.00,100.0*5E
$SDDBT,6.82,f,2.08,M,1.13,F*33
!!VER:1.9,UID:MEGA,APX:0,APS:C,AAX:0,AAR:14.00,WSX:0,WSK:99,
$GPRMC,191415.000,A,3503.6437,N,07658.1800,W,3.75,172.55,120816,,,A*7A
$SDDPT,2.05,0.00,100.0*53
$SDDPT,2.05,0.00,100.0*53
$GPRMC,191417.000,A,3503.6415,N,07658.1798,W,3.78,172.55,120816,,,A*7B
$SDDPT,2.08,0.00,100.0*5E
$SDDPT,2.10,0.00,100.0*57
$SDDBT,6.89,f,2.10,M,1.14,F*36
$VWVHW,,T,,M,3.06,N,5.66,K*54
$SDDPT,2.07,0.00,100.0*51
!!VER:1.9,UID:MEGA,APX:0,APS:C,AAX:0,AAR:14.00,WSX:0,WSK:99,
$WIMWV,30.0,R,10.60,N,A*17
$SDDBT,6.79,f,2.07,M,1.13,F*38
$GPRMC,191420.000,A,3503.6383,N,07658.1793,W,3.87,172.10,120816,,,A*7D
$VWVHW,,T,,M,3.06,N,5.66,K*54
$SDDPT,1.98,0.00,100.0*54
!!VER:1.9,UID:MEGA,APX:0,APS:C,AAX:0,AAR:14.00,WSX:0,WSK:99,
$WIMWV,33.0,R,11.23,N,A*12
$SDDPT,2.08,0.00,100.0*5E
$GPRMC,191422.000,A,3503.6362,N,07658.1789,W,3.77,171.38,120816,,,A*7D
$SDDPT,2.08,0.00,100.0*5E
$SDDPT,2.07,0.00,100.0*51
!!VER:1.9,UID:MEGA,APX:0,APS:C,AAX:0,AAR:14.00,WSX:0,WSK:99,
$GPRMC,191424.000,A,3503.6341,N,07658.1785,W,3.79,170.60,120816,,,A*74
!!VER:1.9,UID:MEGA,APX:0,APS:C,AAX:0,AAR:14.00,WSX:0,WSK:99,
$GPRMC,191426.000,A,3503.6319,N,07658.1781,W,3.86,168.90,120816,,,A*79
!!VER:1.9,UID:MEGA,APX:0,APS:C,AAX:0,AAR:14.00,WSX:0,WSK:99,
$WIMWV,34.0,R,13.17,N,A*10
$GPRMC,191429.000,A,3503.6285,N,07658.1774,W,3.76,167.34,120816,,,A*76
$VWVLW,,N,,N*4C
$SDDPT,2.10,0.00,100.0*57
!!VER:1.9,UID:MEGA,APX:0,APS:C,AAX:0,AAR:14.00,WSX:0,WSK:99,
$SDDPT,2.10,0.00,100.0*57
$SDDBT,6.89,f,2.10,M,1.14,F*36
$VWVHW,,T,,M,3.12,N,5.77,K*51
!!VER:1.9,UID:MEGA,APX:0,APS:C,AAX:0,AAR:14.00,WSX:0,WSK:99,
$GPRMC,191432.000,A,3503.6254,N,07658.1764,W,3.71,163.84,120816,,,A*79
$VWVLW,,N,,N*4C
$SDDPT,2.01,0.00,100.0*57
!!VER:1.9,UID:MEGA,APX:0,APS:C,AAX:0,AAR:14.00,WSX:0,WSK:99,
$WIMWV,48.0,R,13.53,N,A*1B
$SDDPT,2.11,0.00,100.0*56
!!VER:1.9,UID:MEGA,APX:0,APS:C,AAX:0,AAR:14.00,WSX:0,WSK:99,
$SDDPT,2.14,0.00,100.0*53
$SDDBT,7.02,f,2.14,M,1.17,F*33
!!VER:1.9,UID:MEGA,APX:0,APS:C,AAX:0,AAR:14.00,WSX:0,WSK:99,
$WIMWV,45.0,R,13.59,N,A*1C
$VWVHW,,T,,M,3.12,N,5.77,K*51
$GPRMC,191435.000,A,3503.6224,N,07658.1752,W,3.86,159.56,120816,,,A*72
$VWVLW,,N,,N*4C
!!VER:1.9,UID:MEGA,APX:0,APS:C,AAX:0,AAR:14.00,WSX:0,WSK:99,
$SDDPT,2.14,0.00,100.0*53
$SDDPT,2.13,0.00,100.0*54
!!VER:1.9,UID:MEGA,APX:0,APS:C,AAX:0,AAR:14.00,WSX:0,WSK:99,
$SDDPT,2.14,0.00,100.0*53
$SDDBT,7.02,f,2.14,M,1.17,F*33
$VWVHW,,T,,M,3.14,N,5.80,K*5F
$VWVLW,,N,,N*4C
!!VER:1.9,UID:MEGA,APX:0,APS:C,AAX:0,AAR:14.00,WSX:0,WSK:99,
$SDDPT,2.11,0.00,100.0*56
$SDDBT,6.92,f,2.11,M,1.15,F*3C
$VWVHW,,T,,M,3.10,N,5.73,K*57
$SDDPT,2.13,0.00,100.0*54
!!VER:1.9,UID:MEGA,APX:0,APS:C,AAX:0,AAR:14.00,WSX:0,WSK:99,
$WIMWV,50.0,R,13.63,N,A*11
$SDDBT,6.98,f,2.13,M,1.16,F*37
$VWVHW,,T,,M,3.10,N,5.73,K*57
$SDDPT,2.16,0.00,100.0*51
$SDDBT,7.08,f,2.16,M,1.18,F*34
!!VER:1.9,UID:MEGA,APX:0,APS:C,AAX:0,AAR:14.00,WSX:0,WSK:99,
$GPRMC,191441.000,A,3503.6168,N,07658.1721,W,3.71,153.44,120816,,,A*7F
$VWVLW,,N,,N*4C
$SDDPT,2.16,0.00,100.0*51
$SDDPT,2.17,0.00,100.0*50
!!VER:1.9,UID:MEGA,APX:0,APS:C,AAX:0,AAR:14.00,WSX:0,WSK:99,
$GPGGA,191443.000,3503.6147,N,07658.1710,W,1,11,0.8,-10.8,M,-34.8,M,,0000*70
$VWVLW,,N,,N*4C
$SDDPT,2.16,0.00,100.0*51
!!VER:1.9,UID:MEGA,APX:0,APS:C,AAX:0,AAR:14.00,WSX:0,WSK:99,
$WIMWV,52.0,R,14.18,N,A*18
$GPRMC,191445.000,A,3503.6128,N,07658.1697,W,3.65,149.67,120816,,,A*7C
$SDDPT,2.14,0.00,100.0*53
$SDDBT,7.02,f,2.14,M,1.17,F*33
$SDDPT,2.17,0.00,100.0*50
$SDDBT,7.12,f,2.17,M,1.18,F*3E
$VWVHW,,T,,M,2.94,N,5.43,K*59
$SDDPT,2.17,0.00,100.0*50
!!VER:1.9,UID:MEGA,APX:0,APS:C,AAX:0,AAR:14.00,WSX:0,WSK:99,
$WIMWV,54.0,R,13.99,N,A*10
$SDDBT,7.12,f,2.17,M,1.18,F*3E
$VWVHW,,T,,M,2.94,N,5.43,K*59
$SDDPT,2.16,0.00,100.0*51
$SDDBT,7.08,f,2.16,M,1.18,F*34
$VWVLW,,N,,N*4C
$SDDPT,2.16,0.00,100.0*51
$SDDBT,7.08,f,2.16,M,1.18,F*34
!!VER:1.9,UID:MEGA,APX:0,APS:C,AAX:0,AAR:14.00,WSX:0,WSK:99,
$GPRMC,191450.000,A,3503.6085,N,07658.1665,W,3.75,148.39,120816,,,A*78
$VWVLW,,N,,N*4C
$SDDPT,2.17,0.00,100.0*50
$SDDPT,2.16,0.00,100.0*51
!!VER:1.9,UID:MEGA,APX:0,APS:C,AAX:0,AAR:14.00,WSX:0,WSK:99,
$SDDPT,2.11,0.00,100.0*56
$SDDBT,6.92,f,2.11,M,1.15,F*3C
!!VER:1.9,UID:MEGA,APX:0,APS:C,AAX:0,AAR:14.00,WSX:0,WSK:99,
$WIMWV,60.0,R,14.47,N,A*13
$VWVHW,,T,,M,2.96,N,5.47,K*5F
$VWVLW,,N,,N*4C
$SDDPT,2.17,0.00,100.0*50
$SDDBT,7.12,f,2.17,M,1.18,F*3E
$VWVHW,,T,,M,2.92,N,5.40,K*5C
$SDDPT,2.16,0.00,100.0*51
$SDDBT,7.08,f,2.16,M,1.18,F*34
!!VER:1.9,UID:MEGA,APX:0,APS:C,AAX:0,AAR:14.00,WSX:0,WSK:99,
$GPRMC,191455.000,A,3503.6042,N,07658.1628,W,3.68,142.45,120816,,,A*72
$VWVHW,,T,,M,2.92,N,5.40,K*5C
$SDDPT,2.19,0.00,100.0*5E
$SDDPT,2.17,0.00,100.0*50
$GPRMC,191457.000,A,3503.6026,N,07658.1613,W,3.68,140.33,120816,,,A*79
$SDDPT,2.17,0.00,100.0*50
$SDDPT,2.14,0.00,100.0*53
!!VER:1.9,UID:MEGA,APX:0,APS:C,AAX:0,AAR:14.00,WSX:0,WSK:99,
$SDDPT,2.17,0.00,100.0*50
$SDDBT,7.12,f,2.17,M,1.18,F*3E
$VWVHW,,T,,M,3.04,N,5.62,K*52
$VWVLW,,N,,N*4C
!!VER:1.9,UID:MEGA,APX:0,APS:C,AAX:0,AAR:14.00,WSX:0,WSK:99,
$SDDPT,2.17,0.00,100.0*50
$SDDBT,7.12,f,2.17,M,1.18,F*3E
$VWVHW,,T,,M,3.08,N,5.69,K*55
$SDDPT,2.14,0.00,100.0*53
!!VER:1.9,UID:MEGA,APX:0,APS:C,AAX:0,AAR:14.00,WSX:0,WSK:99,
$WIMWV,59.0,R,13.70,N,A*1A
$SDDBT,7.02,f,2.14,M,1.17,F*33
$GPRMC,191502.000,A,3503.5987,N,07658.1572,W,3.72,138.46,120816,,,A*7B
$VWVHW,,T,,M,3.14,N,5.80,K*5F
$SDDPT,2.14,0.00,100.0*53
!!VER:1.9,UID:MEGA,APX:0,APS:C,AAX:0,AAR:14.00,WSX:0,WSK:99,
$WIMWV,59.0,R,13.36,N,A*18
$SDDPT,2.16,0.00,100.0*51
$GPRMC,191504.000,A,3503.5971,N,07658.1556,W,3.62,139.88,120816,,,A*70
!!VER:1.9,UID:MEGA,APX:0,APS:C,AAX:0,AAR:14.00,WSX:0,WSK:99,
$SDDPT,2.11,0.00,100.0*56
$SDDPT,2.04,0.00,100.0*52
!!VER:1.9,UID:MEGA,APX:0,APS:C,AAX:0,AAR:14.00,WSX:0,WSK:99,
$SDDPT,2.13,0.00,100.0*54
$SDDBT,6.98,f,2.13,M,1.16,F*37
$VWVHW,,T,,M,3.16,N,5.84,K*59
$VWVLW,,N,,N*4C
!!VER:1.9,UID:MEGA,APX:0,APS:C,AAX:0,AAR:14.00,WSX:0,WSK:99,
$SDDPT,2.11,0.00,100.0*56
$SDDBT,6.92,f,2.11,M,1.15,F*3C
$VWVHW,,T,,M,3.16,N,5.84,K*59
$VWVHW,,T,,M,3.16,N,5.84,K*59
!!VER:1.9,UID:MEGA,APX:0,APS:C,AAX:0,AAR:14.00,WSX:0,WSK:99,
$WIMWV,58.0,R,13.03,N,A*1F
$VWVHW,,T,,M,3.16,N,5.84,K*59
$GPRMC,191509.000,A,3503.5931,N,07658.1516,W,3.65,140.15,120816,,,A*70
$VWVHW,,T,,M,3.16,N,5.84,K*59
$VWVHW,,T,,M,3.16,N,5.84,K*59
$VWVHW,,T,,M,3.16,N,5.84,K*59
$VWVHW,,T,,M,3.16,N,5.84,K*59
!!VER:1.9,UID:MEGA,APX:0,APS:C,AAX:0,AAR:14.00,WSX:0,WSK:99,
$WIMWV,60.0,R,12.73,N,A*12
$VWVHW,,T,,M,3.16,N,5.84,K*59
$VWVHW,,T,,M,3.16,N,5.84,K*59
$VWVHW,,T,,M,3.16,N,5.84,K*59
$VWVHW,,T,,M,3.16,N,5.84,K*59
$SDDPT,2.08,0.00,100.0*5E
!!VER:1.9,UID:MEGA,APX:0,APS:C,AAX:0,AAR:14.00,WSX:0,WSK:99,
$WIMWV,61.0,R,12.78,N,A*18
!!VER:1.9,UID:MEGA,APX:0,APS:C,AAX:0,AAR:14.00,WSX:0,WSK:99,
$SDDPT,2.05,0.00,100.0*53
$SDDBT,6.72,f,2.05,M,1.12,F*30
$VWVHW,,T,,M,3.08,N,5.69,K*55
$VWVLW,,N,,N*4C
!!VER:1.9,UID:MEGA,APX:0,APS:C,AAX:0,AAR:14.00,WSX:0,WSK:99,
$SDDPT,1.96,0.00,100.0*5A
$SDDBT,6.43,f,1.96,M,1.07,F*3F
$VWVHW,,T,,M,3.08,N,5.69,K*55
$VWVHW,,T,,M,3.08,N,5.69,K*55
!!VER:1.9,UID:MEGA,APX:0,APS:C,AAX:0,AAR:14.00,WSX:0,WSK:99,
$WIMWV,61.0,R,12.52,N,A*10
$VWVHW,,T,,M,3.08,N,5.69,K*55
$GPRMC,191517.000,A,3503.5865,N,07658.1451,W,3.80,141.13,120816,,,A*71
$VWVHW,,T,,M,3.08,N,5.69,K*55
$VWVHW,,T,,M,3.08,N,5.69,K*55
$VWVHW,,T,,M,3.08,N,5.69,K*55
!!VER:1.9,UID:MEGA,APX:0,APS:C,AAX:0,AAR:14.00,WSX:0,WSK:99,
$GPRMC,191519.000,A,3503.5848,N,07658.1434,W,3.76,141.34,120816,,,A*7F
$VWVHW,,T,,M,3.08,N,5.69,K*55
$VWVHW,,T,,M,3.08,N,5.69,K*55
$VWVHW,,T,,M,3.08,N,5.69,K*55
$VWVHW,,T,,M,3.08,N,5.69,K*55
$VWVHW,,T,,M,3.08,N,5.69,K*55
!!VER:1.9,UID:MEGA,APX:0,APS:C,AAX:0,AAR:14.00,WSX:0,WSK:99,
$GPRMC,191522.000,A,3503.5823,N,07658.1411,W,3.68,143.11,120816,,,A*77
$SDDPT,1.99,0.00,100.0*55
$SDDPT,1.96,0.00,100.0*5A
$VWVLW,,N,,N*4C
$GPRMC,191524.000,A,3503.5806,N,07658.1396,W,3.79,143.13,120816,,,A*7C
$SDDPT,1.98,0.00,100.0*54
!!VER:1.9,UID:MEGA,APX:0,APS:C,AAX:0,AAR:14.00,WSX:0,WSK:99,
$SDDBT,6.49,f,1.98,M,1.08,F*34
$SDDPT,1.90,0.00,100.0*5C
$SDDBT,6.23,f,1.90,M,1.03,F*3B
$SDDPT,2.01,0.00,100.0*57
!!VER:1.9,UID:MEGA,APX:0,APS:C,AAX:0,AAR:14.00,WSX:0,WSK:99,
$WIMWV,57.0,R,11.62,N,A*15
$SDDBT,6.59,f,2.01,M,1.09,F*37
$VWVHW,,T,,M,3.08,N,5.69,K*55
$SDDPT,2.01,0.00,100.0*57
$SDDBT,6.59,f,2.01,M,1.09,F*37
!!VER:1.9,UID:MEGA,APX:0,APS:C,AAX:0,AAR:14.00,WSX:0,WSK:99,
$GPGGA,191528.000,3503.5773,N,07658.1363,W,1,11,0.8,-8.5,M,-34.8,M,,0000*4A
$VWVHW,,T,,M,3.10,N,5.73,K*57
$SDDPT,2.04,0.00,100.0*52
$SDDPT,2.02,0.00,100.0*54
!!VER:1.9,UID:MEGA,APX:0,APS:C,AAX:0,AAR:14.00,WSX:0,WSK:99,
$GPRMC,191530.000,A,3503.5755,N,07658.1349,W,3.80,142.13,120816,A*75
!!VER:1.9,UID:MEGA,APX:0,APS:C,AAX:0,AAR:14.00,WSX:0,WSK:99,
$SDDPT,2.01,0.00,100.0*57
$SDDPT,2.01,0.00,100.0*57
!!VER:1.9,UID:MEGA,APX:0,APS:C,AAX:0,AAR:14.00,WSX:0,WSK:99,
$SDDPT,2.01,0.00,100.0*57
$SDDBT,6.59,f,2.01,M,1.09,F*37
$VWVHW,,T,,M,3.06,N,5.66,K*54
$VWVLW,,N,,N*4C
!!VER:1.9,UID:MEGA,APX:0,APS:C,AAX:0,AAR:14.00,WSX:0,WSK:99,
$SDDPT,1.96,0.00,100.0*5A
$SDDBT,6.43,f,1.96,M,1.07,F*3F
$VWVHW,,T,,M,3.18,N,5.88,K*5B
$SDDPT,1.93,0.00,100.0*5F
!!VER:1.9,UID:MEGA,APX:0,APS:C,AAX:0,AAR:14.00,WSX:0,WSK:99,
$WIMWV,59.0,R,12.61,N,A*1B
$SDDBT,6.33,f,1.93,M,1.05,F*3F
$VWVHW,,T,,M,3.22,N,5.95,K*5E
$SDDPT,1.99,0.00,100.0*55
$SDDBT,6.52,f,1.99,M,1.08,F*3F
$GPRMC,191536.000,A,3503.5703,N,07658.1300,W,3.77,144.21,120816,,,A*72
$SDDPT,2.02,0.00,100.0*54
!!VER:1.9,UID:MEGA,APX:0,APS:C,AAX:0,AAR:14.00,WSX:0,WSK:99,
$WIMWV,55.0,R,12.44,N,A*10
$SDDPT,1.99,0.00,100.0*55
$SDDBT,6.52,f,1.99,M,1.08,F*3F
$VWVHW,,T,,M,3.14,N,5.80,K*5F
$SDDPT,1.90,0.00,100.0*5C
!!VER:1.9,UID:MEGA,APX:0,APS:C,AAX:0,AAR:14.00,WSX:0,WSK:99,
$WIMWV,56.0,R,12.88,N,A*13
$SDDBT,6.23,f,1.90,M,1.03,F*3B
$GPRMC,191540.000,A,3503.5668,N,07658.1268,W,3.92,143.89,120816,,,A*7E
$VWVHW,,T,,M,3.16,N,5.84,K*59
$SDDPT,2.02,0.00,100.0*54
!!VER:1.9,UID:MEGA,APX:0,APS:C,AAX:0,AAR:14.00,WSX:0,WSK:99,
$WIMWV,58.0,R,13.30,N,A*1F
$SDDPT,1.99,0.00,100.0*55
$GPRMC,191542.000,A,3503.5650,N,07658.1253,W,3.70,145.57,120816,,,A*76
!!VER:1.9,UID:MEGA,APX:0,APS:C,AAX:0,AAR:14.00,WSX:0,WSK:99,
$SDDPT,1.99,0.00,100.0*55
$SDDPT,1.99,0.00,100.0*55
!!VER:1.9,UID:MEGA,APX:0,APS:C,AAX:0,AAR:14.00,WSX:0,WSK:99,
!!VER:1.9,UID:MEGA,APX:0,APS:C,AAX:0,AAR:14.00,WSX:0,WSK:99,
$WIMWV,60.0,R,12.25,N,A*11
!!VER:1.9,UID:MEGA,APX:0,APS:C,AAX:0,AAR:14.00,WSX:0,WSK:99,
$WIMWV,60.0,R,12.52,N,A*11
$SDDPT,1.99,0.00,100.0*55
$GPRMC,191549.000,A,3503.5590,N,07658.1204,W,3.58,144.57,120816,,,A*7B
$SDDPT,1.99,0.00,100.0*55
$SDDPT,1.96,0.00,100.0*5A
$SDDBT,6.43,f,1.96,M,1.07,F*3F
$VWVHW,,T,,M,3.18,N,5.88,K*5B
$SDDPT,1.98,0.00,100.0*54
!!VER:1.9,UID:MEGA,APX:0,APS:C,AAX:0,AAR:14.00,WSX:0,WSK:99,
$WIMWV,55.0,R,13.36,N,A*14
$SDDBT,6.49,f,1.98,M,1.08,F*34
$GPRMC,191552.000,A,3503.5565,N,07658.1182,W,3.65,142.97,120816,,,A*72
$VWVHW,,T,,M,3.18,N,5.88,K*5B
$SDDPT,2.01,0.00,100.0*57
!!VER:1.9,UID:MEGA,APX:0,APS:C,AAX:0,AAR:14.00,WSX:0,WSK:99,
$WIMWV,55.0,R,12.99,N,A*10
$SDDPT,1.98,0.00,100.0*54
$SDDPT,2.02,0.00,100.0*54
!!VER:1.9,UID:MEGA,APX:0,APS:C,AAX:0,AAR:14.00,WSX:0,WSK:99,
$WIMWV,55.0,R,12.65,N,A*13
$SDDBT,6.62,f,2.02,M,1.10,F*34
$VWVHW,,T,,M,3.18,N,5.88,K*5B
$SDDPT,1.99,0.00,100.0*55
!!VER:1.9,UID:MEGA,APX:0,APS:C,AAX:0,AAR:14.00,WSX:0,WSK:99,
$WIMWV,57.0,R,13.13,N,A*11
$SDDBT,6.52,f,1.99,M,1.08,F*3F
!!VER:1.9,UID:MEGA,APX:0,APS:C,AAX:0,AAR:14.00,WSX:0,WSK:99,
$GPRMC,191556.000,A,3503.5530,N,07658.1152,W,3.65,142.97,120816,,,A*7B
$VWVHW,,T,,M,3.16,N,5.84,K*59
$SDDPT,1.96,0.00,100.0*5A
$SDDPT,1.99,0.00,100.0*55
$GPGGA,191558.000,3503.5513,N,07658.1137,W,1,11,0.8,-8.1,M,-34.8,M,,0000*4E
$SDDPT,1.99,0.00,100.0*55
$SDDPT,1.87,0.00,100.0*5A
!!VER:1.9,UID:MEGA,APX:0,APS:C,AAX:0,AAR:14.00,WSX:0,WSK:99,
$WIMWV,60.0,R,13.01,N,A*16
$SDDBT,6.13,f,1.87,M,1.02,F*3F
$GPRMC,191600.000,A,3503.5496,N,07658.1122,W,3.70,144.04,120816,,,A*79
$VWVHW,,T,,M,3.26,N,6.03,K*56
$SDDPT,1.99,0.00,100.0*55
!!VER:1.9,UID:MEGA,APX:0,APS:C,AAX:0,AAR:14.00,WSX:0,WSK:99,
$WIMWV,59.0,R,13.49,N,A*10
$SDDPT,1.99,0.00,100.0*55
!!VER:1.9,UID:MEGA,APX:0,APS:C,AAX:0,AAR:14.00,WSX:0,WSK:99,
$SDDPT,1.99,0.00,100.0*55
$SDDBT,6.52,f,1.99,M,1.08,F*3F
!!VER:1.9,UID:MEGA,APX:0,APS:C,AAX:0,AAR:14.00,WSX:0,WSK:99,
$VWVHW,,T,,M,3.24,N,5.99,K*54
$GPGGA,191603.000,3503.5469,N,07658.1100,W,1,11,0.8,-8.1,M,-34.8,M,,0000*4B
$VWVLW,,N,,N*4C
$SDDPT,2.01,0.00,100.0*57
$SDDPT,1.98,0.00,100.0*54
!!VER:1.9,UID:MEGA,APX:0,APS:C,AAX:0,AAR:14.00,WSX:0,WSK:99,
$SDDPT,1.99,0.00,100.0*55
$SDDBT,6.52,f,1.99,M,1.08,F*3F
!!VER:1.9,UID:MEGA,APX:0,APS:C,AAX:0,AAR:14.00,WSX:0,WSK:99,
$WIMWV,56.0,R,13.03,N,A*11
$VWVHW,,T,,M,3.20,N,5.92,K*5B
$VWVLW,,N,,N*4C
$SDDPT,1.98,0.00,100.0*54
$SDDBT,6.49,f,1.98,M,1.08,F*34
$VWVHW,,T,,M,3.18,N,5.88,K*5B
$SDDPT,2.01,0.00,100.0*57
$SDDBT,6.59,f,2.01,M,1.09,F*37
!!VER:1.9,UID:MEGA,APX:0,APS:C,AAX:0,AAR:14.00,WSX:0,WSK:99,
$GPGGA,191608.000,3503.5427,N,07658.1065,W,1,11,0.8,-8.0,M,-34.8,M,,0000*49
$VWVHW,,T,,M,3.14,N,5.80,K*5F
$SDDPT,1.99,0.00,100.0*55
$SDDPT,1.99,0.00,100.0*55
$GPRMC,191610.000,A,3503.5409,N,07658.1050,W,3.72,143.33,120816,,,A*7B
!!VER:1.9,UID:MEGA,APX:0,APS:C,AAX:0,AAR:14.00,WSX:0,WSK:99,
$SDDPT,2.02,0.00,100.0*54
$SDDPT,1.98,0.00,100.0*54
!!VER:1.9,UID:MEGA,APX:0,APS:C,AAX:0,AAR:14.00,WSX:0,WSK:99,
$SDDPT,2.01,0.00,100.0*57
$SDDBT,6.59,f,2.01,M,1.09,F*37
$VWVHW,,T,,M,3.08,N,5.69,K*55
$VWVLW,,N,,N*4C
!!VER:1.9,UID:MEGA,APX:0,APS:C,AAX:0,AAR:14.00,WSX:0,WSK:99,
$SDDPT,1.99,0.00,100.0*55
$SDDBT,6.52,f,1.99,M,1.08,F*3F
$VWVHW,,T,,M,3.14,N,5.80,K*5F
$VWVHW,,T,,M,3.14,N,5.80,K*5F
!!VER:1.9,UID:MEGA,APX:0,APS:C,AAX:0,AAR:14.00,WSX:0,WSK:99,
$WIMWV,59.0,R,12.92,N,A*17
$VWVHW,,T,,M,3.14,N,5.80,K*5F
$GPRMC,191615.000,A,3503.5365,N,07658.1011,W,3.75,143.97,120816,,,A*7F
$VWVHW,,T,,M,3.14,N,5.80,K*5F
$VWVHW,,T,,M,3.14,N,5.80,K*5F
$VWVHW,,T,,M,3.14,N,5.80,K*5F
!!VER:1.9,UID:MEGA,APX:0,APS:C,AAX:0,AAR:14.00,WSX:0,WSK:99,
$GPRMC,191617.000,A,3503.5348,N,07658.0997,W,3.58,144.67,120816,,,A*73
$VWVHW,,T,,M,3.14,N,5.80,K*5F
$VWVHW,,T,,M,3.14,N,5.80,K*5F
$VWVHW,,T,,M,3.14,N,5.80,K*5F
$SDDPT,2.01,0.00,100.0*57
!!VER:1.9,UID:MEGA,APX:0,APS:C,AAX:0,AAR:14.00,WSX:0,WSK:99,
$WIMWV,58.0,R,13.09,N,A*15
$GPRMC,191620.000,A,3503.5323,N,07658.0974,W,3.80,143.51,120816,,,A*70
$SDDPT,2.01,0.00,100.0*57
$SDDBT,6.59,f,2.01,M,1.09,F*37
$SDDPT,2.01,0.00,100.0*57
!!VER:1.9,UID:MEGA,APX:0,APS:C,AAX:0,AAR:14.00,WSX:0,WSK:99,
$SDDBT,6.59,f,2.01,M,1.09,F*37
$GPRMC,191622.000,A,3503.5306,N,07658.0959,W,3.49,144.51,120816,,,A*78
$VWVHW,,T,,M,3.12,N,5.77,K*51
$SDDPT,1.99,0.00,100.0*55
!!VER:1.9,UID:MEGA,APX:0,APS:C,AAX:0,AAR:14.00,WSX:0,WSK:99,
$WIMWV,62.0,R,12.69,N,A*1B
$SDDPT,1.99,0.00,100.0*55
$GPRMC,191624.000,A,3503.5289,N,07658.0946,W,3.60,142.98,120816,,,A*7E
!!VER:1.9,UID:MEGA,APX:0,APS:C,AAX:0,AAR:14.00,WSX:0,WSK:99,
$SDDPT,1.98,0.00,100.0*54
$SDDPT,1.99,0.00,100.0*55
!!VER:1.9,UID:MEGA,APX:0,APS:C,AAX:0,AAR:14.00,WSX:0,WSK:99,
$GPRMC,191626.000,A,3503.5274,N,07658.0932,W,3.54,141.10,120816,A*79
$GPGSA,A,3,06,19,17,02,12,28,09,03,23,24,05,,1.3,0.8,1.0*32
!!VER:1.9,UID:MEGA,APX:0,APS:C,AAX:0,AAR:14.00,WSX:0,WSK:99,
$GPRMC,191630.000,A,3503.5243,N,07658.0899,W,3.66,139.11,120816,,,A*75
$SDDPT,2.05,0.00,100.0*53
$GPRMC,191632.000,A,3503.5226,N,07658.0883,W,3.87,142.79,120816,,,A*72
$SDDPT,2.02,0.00,100.0*54
$SDDBT,6.62,f,2.02,M,1.10,F*34
$SDDPT,2.04,0.00,100.0*52
$SDDBT,6.69,f,2.04,M,1.11,F*38
$SDDPT,2.01,0.00,100.0*57
!!VER:1.9,UID:MEGA,APX:0,APS:C,AAX:0,AAR:14.00,WSX:0,WSK:99,
$WIMWV,57.0,R,13.07,N,A*14
$SDDBT,6.59,f,2.01,M,1.09,F*37
$VWVHW,,T,,M,3.14,N,5.80,K*5F
$SDDPT,2.04,0.00,100.0*52
$SDDBT,6.69,f,2.04,M,1.11,F*38
!!VER:1.9,UID:MEGA,APX:0,APS:C,AAX:0,AAR:14.00,WSX:0,WSK:99,
$GPRMC,191636.000,A,3503.5194,N,07658.0852,W,3.80,142.67,120816,,,A*78
$VWVHW,,T,,M,3.08,N,5.69,K*55
$SDDPT,2.05,0.00,100.0*53
$SDDPT,1.96,0.00,100.0*5A
$GPGGA,191638.000,3503.5177,N,07658.0837,W,1,11,0.8,-7.3,M,-34.8,M,,0000*48
$SDDPT,2.05,0.00,100.0*53
!!VER:1.9,UID:MEGA,APX:0,APS:C,AAX:0,AAR:14.00,WSX:0,WSK:99,
$WIMWV,56.0,R,12.63,N,A*16
$SDDPT,1.98,0.00,100.0*54
!!VER:1.9,UID:MEGA,APX:0,APS:C,AAX:0,AAR:14.00,WSX:0,WSK:99,
$SDDPT,2.05,0.00,100.0*53
$SDDBT,6.72,f,2.05,M,1.12,F*30
!!VER:1.9,UID:MEGA,APX:0,APS:C,AAX:0,AAR:14.00,WSX:0,WSK:99,
$WIMWV,54.0,R,12.67,N,A*10
$VWVHW,,T,,M,3.08,N,5.69,K*55
$GPRMC,191641.000,A,3503.5152,N,07658.0813,W,3.70,141.06,120816,,,A*7C
$VWVLW,,N,,N*4C
!!VER:1.9,UID:MEGA,APX:0,APS:C,AAX:0,AAR:14.00,WSX:0,WSK:99,
$SDDPT,2.07,0.00,100.0*51
$SDDPT,2.05,0.00,100.0*53
!!VER:1.9,UID:MEGA,APX:0,APS:C,AAX:0,AAR:14.00,WSX:0,WSK:99,
$GPRMC,191643.000,A,3503.5137,N,07658.0797,W,3.70,138.53,120816,,,A*70
$SDDPT,2.07,0.00,100.0*51
$SDDBT,6.79,f,2.07,M,1.13,F*38
$SDDPT,1.90,0.00,100.0*5C
$SDDBT,6.23,f,1.90,M,1.03,F*3B
!!VER:1.9,UID:MEGA,APX:0,APS:C,AAX:0,AAR:14.00,WSX:0,WSK:99,
$GPRMC,191645.000,A,3503.5121,N,07658.0780,W,3.64,138.35,120816,,,A*72
$SDDBT,6.23,f,1.90,M,1.03,F*3B
$SDDBT,6.23,f,1.90,M,1.03,F*3B
$SDDBT,6.23,f,1.90,M,1.03,F*3B
!!VER:1.9,UID:MEGA,APX:0,APS:C,AAX:0,AAR:14.00,WSX:0,WSK:99,
$GPRMC,191647.000,A,3503.5105,N,07658.0764,W,3.79,138.98,120816,,,A*77
$SDDBT,6.23,f,1.90,M,1.03,F*3B
$SDDBT,6.23,f,1.90,M,1.03,F*3B
$SDDBT,6.23,f,1.90,M,1.03,F*3B
$SDDBT,6.23,f,1.90,M,1.03,F*3B
!!VER:1.9,UID:MEGA,APX:0,APS:C,AAX:0,AAR:14.00,WSX:0,WSK:99,
$WIMWV,62.0,R,12.31,N,A*16
$SDDBT,6.23,f,1.90,M,1.03,F*3B
$SDDBT,6.23,f,1.90,M,1.03,F*3B
$SDDBT,6.23,f,1.90,M,1.03,F*3B
$SDDBT,6.23,f,1.90,M,1.03,F*3B
$SDDBT,6.23,f,1.90,M,1.03,F*3B
!!VER:1.9,UID:MEGA,APX:0,APS:C,AAX:0,AAR:14.00,WSX:0,WSK:99,
$WIMWV,62.0,R,12.15,N,A*10
$SDDBT,6.23,f,1.90,M,1.03,F*3B
$SDDBT,6.23,f,1.90,M,1.03,F*3B
$VWVLW,,N,,N*4C
!!VER:1.9,UID:MEGA,APX:0,APS:C,AAX:0,AAR:14.00,WSX:0,WSK:99,
$WIMWV,62.0,R,12.44,N,A*14
$SDDPT,1.93,0.00,100.0*5F
!!VER:1.9,UID:MEGA,APX:0,APS:C,AAX:0,AAR:14.00,WSX:0,WSK:99,
$SDDPT,1.99,0.00,100.0*55
$SDDBT,6.52,f,1.99,M,1.08,F*3F
$VWVHW,,T,,M,3.14,N,5.80,K*5F
$VWVLW,,N,,N*4C
$SDDPT,2.11,0.00,100.0*56
!!VER:1.9,UID:MEGA,APX:0,APS:C,AAX:0,AAR:14.00,WSX:0,WSK:99,
$WIMWV,56.0,R,11.54,N,A*11
$SDDBT,6.92,f,2.11,M,1.15,F*3C
!!VER:1.9,UID:MEGA,APX:0,APS:C,AAX:0,AAR:14.00,WSX:0,WSK:99,
$GPRMC,191655.000,A,3503.5041,N,07658.0694,W,3.76,142.29,120816,,,A*73
$VWVHW,,T,,M,3.18,N,5.88,K*5B
$SDDPT,2.13,0.00,100.0*54
$SDDPT,1.90,0.00,100.0*5C
$GPRMC,191657.000,A,3503.5024,N,07658.0679,W,3.85,144.32,120816,,,A*71
$SDDPT,2.08,0.00,100.0*5E
$SDDPT,2.16,0.00,100.0*51
$SDDBT,7.08,f,2.16,M,1.18,F*34
$VWVHW,,T,,M,3.14,N,5.80,K*5F
$SDDPT,2.14,0.00,100.0*53
!!VER:1.9,UID:MEGA,APX:0,APS:C,AAX:0,AAR:14.00,WSX:0,WSK:99,
$WIMWV,55.0,R,11.98,N,A*12
$SDDBT,7.02,f,2.14,M,1.17,F*33
$GPRMC,191700.000,A,3503.4997,N,07658.0656,W,3.71,143.62,120816,,,A*76
$VWVHW,,T,,M,3.10,N,5.73,K*57
$SDDPT,2.16,0.00,100.0*51
!!VER:1.9,UID:MEGA,APX:0,APS:C,AAX:0,AAR:14.00,WSX:0,WSK:99,
$WIMWV,58.0,R,12.59,N,A*11
$SDDPT,2.13,0.00,100.0*54
$GPRMC,191702.000,A,3503.4979,N,07658.0641,W,3.83,143.32,120816,,,A*7A
!!VER:1.9,UID:MEGA,APX:0,APS:C,AAX:0,AAR:14.00,WSX:0,WSK:99,
$SDDPT,2.19,0.00,100.0*5E
$SDDPT,2.16,0.00,100.0*51
!!VER:1.9,UID:MEGA,APX:0,APS:C,AAX:0,AAR:14.00,WSX:0,WSK:99,
$SDDPT,2.19,0.00,100.0*5E
$SDDBT,7.18,f,2.19,M,1.19,F*3B
$VWVHW,,T,,M,3.06,N,5.66,K*54
$VWVLW,,N,,N*4C
!!VER:1.9,UID:MEGA,APX:0,APS:C,AAX:0,AAR:14.00,WSX:0,WSK:99,
$SDDPT,2.17,0.00,100.0*50
$SDDBT,7.12,f,2.17,M,1.18,F*3E
$VWVHW,,T,,M,3.08,N,5.69,K*55
$SDDPT,2.16,0.00,100.0*51
!!VER:1.9,UID:MEGA,APX:0,APS:C,AAX:0,AAR:14.00,WSX:0,WSK:99,
$WIMWV,58.0,R,12.02,N,A*1F
$SDDBT,7.08,f,2.16,M,1.18,F*34
$VWVHW,,T,,M,3.06,N,5.66,K*54
$SDDPT,2.17,0.00,100.0*50
$SDDBT,7.12,f,2.17,M,1.18,F*3E
$GPGGA,191708.000,3503.4924,N,07658.0595,W,1,11,0.8,-7.3,M,-34.8,M,,0000*40
$VWVLW,,N,,N*4C
$SDDPT,1.72,0.00,100.0*50
!!VER:1.9,UID:MEGA,APX:0,APS:C,AAX:0,AAR:14.00,WSX:0,WSK:99,
$WIMWV,56.0,R,12.23,N,A*12
$SDDPT,2.05,0.00,100.0*53
$GPRMC,191710.000,A,3503.4906,N,07658.0580,W,3.85,143.38,120816,,,A*73
$SDDPT,2.05,0.00,100.0*53
$SDDPT,2.05,0.00,100.0*53
$SDDPT,2.05,0.00,100.0*53
$SDDPT,2.05,0.00,100.0*53
!!VER:1.9,UID:MEGA,APX:0,APS:C,AAX:0,AAR:14.00,WSX:0,WSK:99,
$SDDPT,2.05,0.00,100.0*53
$SDDPT,2.05,0.00,100.0*53
$SDDPT,2.05,0.00,100.0*53
!!VER:1.9,UID:MEGA,APX:0,APS:C,AAX:0,AAR:14.00,WSX:0,WSK:99,
$SDDPT,2.05,0.00,100.0*53
$SDDPT,2.05,0.00,100.0*53
$SDDPT,2.20,0.00,100.0*54
!!VER:1.9,UID:MEGA,APX:0,APS:C,AAX:0,AAR:14.00,WSX:0,WSK:99,
$SDDPT,2.22,0.00,100.0*56
$SDDBT,7.28,f,2.22,M,1.21,F*3B
$VWVHW,,T,,M,3.22,N,5.95,K*5E
!!VER:1.9,UID:MEGA,APX:0,APS:C,AAX:0,AAR:14.00,WSX:0,WSK:99,
$GPRMC,191715.000,A,3503.4859,N,07658.0539,W,3.94,143.77,120816,A*74
$VWVLW,,N,,N*4C
$SDDPT,2.25,0.00,100.0*51
!!VER:1.9,UID:MEGA,APX:0,APS:C,AAX:0,AAR:14.00,WSX:0,WSK:99,
$WIMWV,53.0,R,11.73,N,A*11
!!VER:1.9,UID:MEGA,APX:0,APS:C,AAX:0,AAR:14.00,WSX:0,WSK:99,
$SDDPT,2.26,0.00,100.0*52
$SDDBT,7.41,f,2.26,M,1.23,F*32
!!VER:1.9,UID:MEGA,APX:0,APS:C,AAX:0,AAR:14.00,WSX:0,WSK:99,
$WIMWV,54.0,R,11.88,N,A*12
$VWVHW,,T,,M,3.22,N,5.95,K*5E
$VWVLW,,N,,N*4C
$SDDPT,2.26,0.00,100.0*52
$SDDBT,7.41,f,2.26,M,1.23,F*32
$VWVHW,,T,,M,3.18,N,5.88,K*5B
$SDDPT,2.19,0.00,100.0*5E
$SDDBT,7.18,f,2.19,M,1.19,F*3B
!!VER:1.9,UID:MEGA,APX:0,APS:C,AAX:0,AAR:14.00,WSX:0,WSK:99,
$GPRMC,191720.000,A,3503.4814,N,07658.0504,W,3.70,147.52,120816,,,A*7C
$SDDPT,2.25,0.00,100.0*51
$SDDPT,2.17,0.00,100.0*50
$GPRMC,191722.000,A,3503.4795,N,07658.0489,W,3.91,149.46,120816,,,A*78
$SDDPT,2.26,0.00,100.0*52
$SDDPT,2.26,0.00,100.0*52
!!VER:1.9,UID:MEGA,APX:0,APS:C,AAX:0,AAR:14.00,WSX:0,WSK:99,
$SDDPT,2.16,0.00,100.0*51
$SDDBT,7.08,f,2.16,M,1.18,F*34
!!VER:1.9,UID:MEGA,APX:0,APS:C,AAX:0,AAR:14.00,WSX:0,WSK:99,
$WIMWV,50.0,R,11.52,N,A*11
$VWVHW,,T,,M,3.16,N,5.84,K*59
$GPRMC,191725.000,A,3503.4766,N,07658.0470,W,3.82,152.06,120816,,,A*79
$VWVLW,,N,,N*4C
!!VER:1.9,UID:MEGA,APX:0,APS:C,AAX:0,AAR:14.00,WSX:0,WSK:99,
$SDDPT,2.17,0.00,100.0*50
$SDDPT,2.28,0.00,100.0*5C
!!VER:1.9,UID:MEGA,APX:0,APS:C,AAX:0,AAR:14.00,WSX:0,WSK:99,
$SDDPT,2.29,0.00,100.0*5D
$SDDBT,7.51,f,2.29,M,1.25,F*3A
$VWVHW,,T,,M,3.16,N,5.84,K*59
$VWVHW,,T,,M,3.16,N,5.84,K*59
!!VER:1.9,UID:MEGA,APX:0,APS:C,AAX:0,AAR:14.00,WSX:0,WSK:99,
$WIMWV,54.0,R,12.94,N,A*1C
$VWVHW,,T,,M,3.16,N,5.84,K*59
$VWVHW,,T,,M,3.16,N,5.84,K*59
$VWVHW,,T,,M,3.16,N,5.84,K*59
$VWVHW,,T,,M,3.16,N,5.84,K*59
$VWVHW,,T,,M,3.16,N,5.84,K*59
$VWVHW,,T,,M,3.16,N,5.84,K*59
!!VER:1.9,UID:MEGA,APX:0,APS:C,AAX:0,AAR:14.00,WSX:0,WSK:99,
$GPRMC,191731.000,A,3503.4710,N,07658.0429,W,3.82,147.68,120816,,,A*7D
$VWVHW,,T,,M,3.16,N,5.84,K*59
$VWVHW,,T,,M,3.16,N,5.84,K*59
$SDDPT,2.28,0.00,100.0*5C
!!VER:1.9,UID:MEGA,APX:0,APS:C,AAX:0,AAR:14.00,WSX:0,WSK:99,
$SDDPT,2.25,0.00,100.0*51
$SDDBT,7.38,f,2.25,M,1.23,F*3F
$VWVHW,,T,,M,3.20,N,5.92,K*5B
$SDDPT,2.26,0.00,100.0*52
!!VER:1.9,UID:MEGA,APX:0,APS:C,AAX:0,AAR:14.00,WSX:0,WSK:99,
$WIMWV,55.0,R,12.44,N,A*10
$SDDBT,7.41,f,2.26,M,1.23,F*32
$VWVHW,,T,,M,3.18,N,5.88,K*5B
$SDDPT,2.28,0.00,100.0*5C
$SDDBT,7.48,f,2.28,M,1.24,F*32
$GPRMC,191736.000,A,3503.4665,N,07658.0389,W,3.77,145.60,120816,,,A*74
$VWVLW,,N,,N*4C
$SDDPT,2.32,0.00,100.0*57
!!VER:1.9,UID:MEGA,APX:0,APS:C,AAX:0,AAR:14.00,WSX:0,WSK:99,
$WIMWV,53.0,R,12.84,N,A*1A
$SDDPT,2.26,0.00,100.0*52
!!VER:1.9,UID:MEGA,APX:0,APS:C,AAX:0,AAR:14.00,WSX:0,WSK:99,
$GPRMC,191738.000,A,3503.4648,N,07658.0375,W,3.58,145.72,120816,,,A*78
$SDDPT,2.26,0.00,100.0*52
!!VER:1.9,UID:MEGA,APX:0,APS:C,AAX:0,AAR:14.00,WSX:0,WSK:99,
$SDDBT,7.41,f,2.26,M,1.23,F*32
$SDDPT,2.25,0.00,100.0*51
$SDDBT,7.38,f,2.25,M,1.23,F*3F
$SDDPT,2.20,0.00,100.0*54
!!VER:1.9,UID:MEGA,APX:0,APS:C,AAX:0,AAR:14.00,WSX:0,WSK:99,
$WIMWV,53.0,R,12.23,N,A*17
$SDDBT,7.21,f,2.20,M,1.20,F*31
$VWVHW,,T,,M,3.14,N,5.80,K*5F
$SDDPT,2.22,0.00,100.0*56
$SDDBT,7.28,f,2.22,M,1.21,F*3B
!!VER:1.9,UID:MEGA,APX:0,APS:C,AAX:0,AAR:14.00,WSX:0,WSK:99,
$GPRMC,191742.000,A,3503.4614,N,07658.0349,W,3.77,146.74,120816,,,A*7B
$VWVHW,,T,,M,3.10,N,5.73,K*57
$SDDPT,2.16,0.00,100.0*51
$SDDPT,2.13,0.00,100.0*54
$GPRMC,191744.000,A,3503.4596,N,07658.0335,W,3.73,149.03,120816,,,A*74
$SDDPT,2.07,0.00,100.0*51
!!VER:1.9,UID:MEGA,APX:0,APS:C,AAX:0,AAR:14.00,WSX:0,WSK:99,
$WIMWV,53.0,R,12.44,N,A*16
$SDDPT,2.05,0.00,100.0*53
!!VER:1.9,UID:MEGA,APX:0,APS:C,AAX:0,AAR:14.00,WSX:0,WSK:99,
$SDDPT,2.04,0.00,100.0*52
$SDDBT,6.69,f,2.04,M,1.11,F*38
!!VER:1.9,UID:MEGA,APX:0,APS:C,AAX:0,AAR:14.00,WSX:0,WSK:99,
$WIMWV,52.0,R,12.48,N,A*1B
$VWVHW,,T,,M,3.08,N,5.69,K*55
$GPRMC,191747.000,A,3503.4568,N,07658.0315,W,3.74,150.46,120816,,,A*7A
$VWVLW,,N,,N*4C
!!VER:1.9,UID:MEGA,APX:0,APS:C,AAX:0,AAR:14.00,WSX:0,WSK:99,
$SDDPT,2.08,0.00,100.0*5E
$SDDPT,2.13,0.00,100.0*54
!!VER:1.9,UID:MEGA,APX:0,APS:C,AAX:0,AAR:14.00,WSX:0,WSK:99,
$SDDPT,2.17,0.00,100.0*50
$SDDBT,7.12,f,2.17,M,1.18,F*3E
$VWVHW,,T,,M,3.18,N,5.88,K*5B
$VWVLW,,N,,N*4C
!!VER:1.9,UID:MEGA,APX:0,APS:C,AAX:0,AAR:14.00,WSX:0,WSK:99,
$SDDPT,2.16,0.00,100.0*51
$SDDBT,7.08,f,2.16,M,1.18,F*34
$VWVHW,,T,,M,3.14,N,5.80,K*5F
$VWVHW,,T,,M,3.14,N,5.80,K*5F
!!VER:1.9,UID:MEGA,APX:0,APS:C,AAX:0,AAR:14.00,WSX:0,WSK:99,
$WIMWV,51.0,R,12.55,N,A*14
$SDDPT,2.04,0.00,100.0*52
$GPRMC,191752.000,A,3503.4521,N,07658.0284,W,3.72,149.13,120816,,,A*74
$SDDBT,6.69,f,2.04,M,1.11,F*38
$SDDPT,2.22,0.00,100.0*56
!!VER:1.9,UID:MEGA,APX:0,APS:C,AAX:0,AAR:14.00,WSX:0,WSK:99,
$WIMWV,53.0,R,12.11,N,A*16
$SDDPT,2.19,0.00,100.0*5E
$SDDPT,2.14,0.00,100.0*53
!!VER:1.9,UID:MEGA,APX:0,APS:C,AAX:0,AAR:14.00,WSX:0,WSK:99,
$WIMWV,53.0,R,12.02,N,A*14
$SDDBT,7.02,f,2.14,M,1.17,F*33
$VWVHW,,T,,M,3.10,N,5.73,K*57
$SDDPT,2.23,0.00,100.0*57
$SDDBT,7.31,f,2.23,M,1.21,F*32
!!VER:1.9,UID:MEGA,APX:0,APS:C,AAX:0,AAR:14.00,WSX:0,WSK:99,
$GPRMC,191756.000,A,3503.4483,N,07658.0258,W,3.75,148.19,120816,,,A*74
$SDDPT,2.29,0.00,100.0*5D
$SDDPT,2.25,0.00,100.0*51
$GPGGA,191758.000,3503.4464,N,07658.0246,W,1,11,0.8,-7.4,M,-34.8,M,,0000*42
$SDDPT,2.25,0.00,100.0*51
$SDDPT,2.14,0.00,100.0*53
!!VER:1.9,UID:MEGA,APX:0,APS:C,AAX:0,AAR:14.00,WSX:0,WSK:99,
$SDDPT,2.29,0.00,100.0*5D
$SDDBT,7.51,f,2.29,M,1.25,F*3A
!!VER:1.9,UID:MEGA,APX:0,APS:C,AAX:0,AAR:14.00,WSX:0,WSK:99,
$WIMWV,50.0,R,11.92,N,A*1D
$VWVHW,,T,,M,3.12,N,5.77,K*51
$VWVLW,,N,,N*4C
!!VER:1.9,UID:MEGA,APX:0,APS:C,AAX:0,AAR:14.00,WSX:0,WSK:99,
$SDDPT,2.29,0.00,100.0*5D
$SDDBT,7.51,f,2.29,M,1.25,F*3A
$VWVHW,,T,,M,3.14,N,5.80,K*5F
$SDDPT,2.31,0.00,100.0*54
$SDDBT,7.57,f,2.31,M,1.26,F*36
!!VER:1.9,UID:MEGA,APX:0,APS:C,AAX:0,AAR:14.00,WSX:0,WSK:99,
$GPGGA,191803.000,3503.4414,N,07658.0215,W,1,11,0.8,-7.4,M,-34.8,M,,0000*42
$VWVHW,,T,,M,3.10,N,5.73,K*57
$SDDPT,2.29,0.00,100.0*5D
$SDDPT,2.32,0.00,100.0*57
!!VER:1.9,UID:MEGA,APX:0,APS:C,AAX:0,AAR:14.00,WSX:0,WSK:99,
$GPRMC,191805.000,A,3503.4394,N,07658.0205,W,3.85,153.61,120816,,,A*7E
$VWVLW,,N,,N*4C
$SDDPT,2.31,0.00,100.0*54
$SDDPT,2.34,0.00,100.0*51
!!VER:1.9,UID:MEGA,APX:0,APS:C,AAX:0,AAR:14.00,WSX:0,WSK:99,
$SDDPT,2.32,0.00,100.0*57
$SDDBT,7.61,f,2.32,M,1.26,F*30
$VWVHW,,T,,M,3.10,N,5.73,K*57
$VWVLW,,N,,N*4C
!!VER:1.9,UID:MEGA,APX:0,APS:C,AAX:0,AAR:14.00,WSX:0,WSK:99,
$SDDPT,2.32,0.00,100.0*57
$SDDBT,7.61,f,2.32,M,1.26,F*30
$VWVHW,,T,,M,3.12,N,5.77,K*51
$SDDPT,2.32,0.00,100.0*57
!!VER:1.9,UID:MEGA,APX:0,APS:C,AAX:0,AAR:14.00,WSX:0,WSK:99,
$WIMWV,48.0,R,12.44,N,A*1C
$SDDBT,7.61,f,2.32,M,1.26,F*30
$GPRMC,191810.000,A,3503.4345,N,07658.0177,W,3.84,157.41,120816,,,A*77
$VWVHW,,T,,M,3.10,N,5.73,K*57
$SDDPT,2.34,0.00,100.0*51
!!VER:1.9,UID:MEGA,APX:0,APS:C,AAX:0,AAR:14.00,WSX:0,WSK:99,
$WIMWV,48.0,R,11.79,N,A*11
$SDDPT,2.32,0.00,100.0*57
